$GPGGA,184501.00,4515.4033955,N,11818.6201076,W,1,5,1.5,100.01,M,0.00,M,,*7B
$GPGGA,064238.00,4500.4531279,N,11843.1857746,W,1,5,1.5,100.01,M,0.00,M,,*7B
$GPGGA,074724.00,4502.5092071,N,12023.4530789,W,1,5,1.5,100.01,M,0.00,M,,*70
$GPGGA,221244.00,4514.2071565,N,12216.3465361,W,1,5,1.5,100.01,M,0.00,M,,*7C
$GPGGA,141214.00,4524.2649418,N,12256.5806112,W,1,5,1.5,100.01,M,0.00,M,,*74
$GPGGA,224954.00,4503.3800543,N,12010.4071653,W,1,5,1.5,100.01,M,0.00,M,,*78
$GPGGA,201438.00,4524.4501285,N,12142.1815894,W,1,5,1.5,100.01,M,0.00,M,,*77
$GPGGA,043957.00,4515.4817593,N,11933.2515121,W,1,5,1.5,100.01,M,0.00,M,,*7B
$GPGGA,220032.00,4501.4101404,N,12037.2128889,W,1,5,1.5,100.01,M,0.00,M,,*7D
$GPGGA,054244.00,4518.2752133,N,11837.1250868,W,1,5,1.5,100.01,M,0.00,M,,*7B
$GPGGA,115722.00,4513.3321771,N,12042.1384687,W,1,5,1.5,100.01,M,0.00,M,,*7E
$GPGGA,183429.00,4509.5012096,N,12034.5943914,W,1,5,1.5,100.01,M,0.00,M,,*78
$GPGGA,123123.00,4502.3608200,N,11912.2114323,W,1,5,1.5,100.01,M,0.00,M,,*7D
$GPGGA,205002.00,4515.4144262,N,12045.4557657,W,1,5,1.5,100.01,M,0.00,M,,*79
$GPGGA,203840.00,4515.1180056,N,11945.4358648,W,1,5,1.5,100.01,M,0.00,M,,*74
$GPGGA,144406.00,4507.5062734,N,12052.4874133,W,1,5,1.5,100.01,M,0.00,M,,*71
$GPGGA,170701.00,4513.6977248,N,12227.3916371,W,1,5,1.5,100.01,M,0.00,M,,*71
$GPGGA,055307.00,4518.3982987,N,11824.1350752,W,1,5,1.5,100.01,M,0.00,M,,*7C
$GPGGA,053835.00,4506.8711221,N,11947.1415739,W,1,5,1.5,100.01,M,0.00,M,,*78
$GPGGA,092234.00,4459.2339935,N,11824.3435072,W,1,5,1.5,100.01,M,0.00,M,,*73
$GPGGA,195925.00,4513.8244868,N,12145.2231754,W,1,5,1.5,100.01,M,0.00,M,,*74
$GPGGA,094440.00,4516.4699297,N,11843.2064485,W,1,5,1.5,100.01,M,0.00,M,,*7C
$GPGGA,055351.00,4505.2280228,N,11821.2597131,W,1,5,1.5,100.01,M,0.00,M,,*7D
$GPGGA,161534.00,4512.5150031,N,11929.5010175,W,1,5,1.5,100.01,M,0.00,M,,*7F
$GPGGA,052300.00,4529.5334621,N,12249.4407296,W,1,5,1.5,100.01,M,0.00,M,,*73
$GPGGA,112835.00,4506.3960824,N,12149.4029210,W,1,5,1.5,100.01,M,0.00,M,,*75
$GPGGA,143512.00,4501.2821575,N,11859.9807161,W,1,5,1.5,100.01,M,0.00,M,,*75
$GPGGA,125257.00,4515.3952235,N,11827.2467689,W,1,5,1.5,100.01,M,0.00,M,,*78
$GPGGA,092833.00,4511.3879497,N,12045.8132779,W,1,5,1.5,100.01,M,0.00,M,,*71
$GPGGA,003830.00,4525.2100118,N,12148.5903060,W,1,5,1.5,100.01,M,0.00,M,,*7D
$GPGGA,215326.00,4515.5924754,N,11821.1307881,W,1,5,1.5,100.01,M,0.00,M,,*78
$GPGGA,212004.00,4519.4220686,N,12058.1952513,W,1,5,1.5,100.01,M,0.00,M,,*79
$GPGGA,215920.00,4523.1275312,N,12012.2767664,W,1,5,1.5,100.01,M,0.00,M,,*73
$GPGGA,134115.00,4521.4608015,N,12019.7125671,W,1,5,1.5,100.01,M,0.00,M,,*7A
$GPGGA,201259.00,4506.5160271,N,12049.4224371,W,1,5,1.5,100.01,M,0.00,M,,*78
$GPGGA,125619.00,4509.2949616,N,11959.1209701,W,1,5,1.5,100.01,M,0.00,M,,*71
$GPGGA,121846.00,4518.5757525,N,11957.4534740,W,1,5,1.5,100.01,M,0.00,M,,*73
$GPGGA,035506.00,4522.2238208,N,11832.5367777,W,1,5,1.5,100.01,M,0.00,M,,*73
$GPGGA,095310.00,4508.2397790,N,12238.1206875,W,1,5,1.5,100.01,M,0.00,M,,*7C
$GPGGA,105208.00,4533.1961380,N,12129.5107051,W,1,5,1.5,100.01,M,0.00,M,,*7A
$GPGGA,210553.00,4511.4563568,N,11842.6371954,W,1,5,1.5,100.01,M,0.00,M,,*74
$GPGGA,223823.00,4457.1441598,N,11854.1754758,W,1,5,1.5,100.01,M,0.00,M,,*77
$GPGGA,182226.00,4512.2063717,N,11948.2992183,W,1,5,1.5,100.01,M,0.00,M,,*79
$GPGGA,103858.00,4520.5699870,N,11953.1406672,W,1,5,1.5,100.01,M,0.00,M,,*78
$GPGGA,023359.00,4508.1590863,N,12055.2616358,W,1,5,1.5,100.01,M,0.00,M,,*76
$GPGGA,054602.00,4511.1531910,N,12028.8385617,W,1,5,1.5,100.01,M,0.00,M,,*7A
$GPGGA,051850.00,4514.4427106,N,11953.1371319,W,1,5,1.5,100.01,M,0.00,M,,*70
$GPGGA,215737.00,4500.4556268,N,11855.1879504,W,1,5,1.5,100.01,M,0.00,M,,*7B
$GPGGA,161627.00,4454.4385057,N,11819.2332533,W,1,5,1.5,100.01,M,0.00,M,,*76
$GPGGA,120740.00,4515.2833965,N,12039.5200490,W,1,5,1.5,100.01,M,0.00,M,,*79
$GPGGA,211242.00,4520.5706100,N,12054.3017952,W,1,5,1.5,100.01,M,0.00,M,,*76
$GPGGA,072630.00,4529.6725055,N,12236.8009692,W,1,5,1.5,100.01,M,0.00,M,,*7B
$GPGGA,011456.00,4519.1248722,N,11906.1914725,W,1,5,1.5,100.01,M,0.00,M,,*7B
$GPGGA,195007.00,4500.2092639,N,11837.1949201,W,1,5,1.5,100.01,M,0.00,M,,*7B
$GPGGA,102048.00,4513.4050712,N,12207.5956222,W,1,5,1.5,100.01,M,0.00,M,,*7D
$GPGGA,203518.00,4524.1472341,N,12252.8441520,W,1,5,1.5,100.01,M,0.00,M,,*7B
$GPGGA,145833.00,4526.2004429,N,11820.2980828,W,1,5,1.5,100.01,M,0.00,M,,*70
$GPGGA,135507.00,4511.1993235,N,11952.5465251,W,1,5,1.5,100.01,M,0.00,M,,*77
$GPGGA,111030.00,4512.2375359,N,12216.1775555,W,1,5,1.5,100.01,M,0.00,M,,*74
$GPGGA,164035.00,4515.4869363,N,12021.9193707,W,1,5,1.5,100.01,M,0.00,M,,*78
$GPGGA,113136.00,4503.4131884,N,12053.3583858,W,1,5,1.5,100.01,M,0.00,M,,*74
$GPGGA,123922.00,4501.3681846,N,12104.2757831,W,1,5,1.5,100.01,M,0.00,M,,*7B
$GPGGA,103745.00,4522.3669069,N,12016.4060982,W,1,5,1.5,100.01,M,0.00,M,,*7A
$GPGGA,062007.00,4501.2934228,N,12036.5851424,W,1,5,1.5,100.01,M,0.00,M,,*75
$GPGGA,073904.00,4519.1852066,N,11838.7557576,W,1,5,1.5,100.01,M,0.00,M,,*76
$GPGGA,093729.00,4459.3680091,N,11822.7686016,W,1,5,1.5,100.01,M,0.00,M,,*70
$GPGGA,051051.00,4456.8731676,N,11833.7164961,W,1,5,1.5,100.01,M,0.00,M,,*74
$GPGGA,103805.00,4509.3051885,N,12103.4971160,W,1,5,1.5,100.01,M,0.00,M,,*77
$GPGGA,203714.00,4538.1697285,N,12255.2475620,W,1,5,1.5,100.01,M,0.00,M,,*71
$GPGGA,224725.00,4518.2092724,N,11901.2563936,W,1,5,1.5,100.01,M,0.00,M,,*7D
$GPGGA,004937.00,4503.2828309,N,11936.1307544,W,1,5,1.5,100.01,M,0.00,M,,*72
$GPGGA,210412.00,4459.5544334,N,11943.5832334,W,1,5,1.5,100.01,M,0.00,M,,*75
$GPGGA,234914.00,4510.5585432,N,11834.5231436,W,1,5,1.5,100.01,M,0.00,M,,*75
$GPGGA,083831.00,4515.5317654,N,11827.1002421,W,1,5,1.5,100.01,M,0.00,M,,*75
$GPGGA,042919.00,4513.1307064,N,11928.3891167,W,1,5,1.5,100.01,M,0.00,M,,*7C
$GPGGA,120522.00,4508.1910126,N,12015.5271098,W,1,5,1.5,100.01,M,0.00,M,,*7B
$GPGGA,213957.00,4517.5883947,N,11905.5022177,W,1,5,1.5,100.01,M,0.00,M,,*77
$GPGGA,142445.00,4525.4027346,N,12110.1397084,W,1,5,1.5,100.01,M,0.00,M,,*78
$GPGGA,005625.00,4522.6432069,N,12224.3117296,W,1,5,1.5,100.01,M,0.00,M,,*78
$GPGGA,222801.00,4517.3118116,N,12141.3011139,W,1,5,1.5,100.01,M,0.00,M,,*71
$GPGGA,172622.00,4513.3355417,N,12222.1990575,W,1,5,1.5,100.01,M,0.00,M,,*7B
$GPGGA,175400.00,4457.3697017,N,11834.4113639,W,1,5,1.5,100.01,M,0.00,M,,*73
$GPGGA,195835.00,4517.4299584,N,12103.4949780,W,1,5,1.5,100.01,M,0.00,M,,*7A
$GPGGA,032554.00,4506.1329771,N,12020.8882489,W,1,5,1.5,100.01,M,0.00,M,,*7B
$GPGGA,004902.00,4534.1458790,N,12305.5831707,W,1,5,1.5,100.01,M,0.00,M,,*7A
$GPGGA,003612.00,4537.1943267,N,12308.1287528,W,1,5,1.5,100.01,M,0.00,M,,*7B
$GPGGA,102545.00,4525.2662340,N,12122.4234316,W,1,5,1.5,100.01,M,0.00,M,,*7E
$GPGGA,110501.00,4459.4874806,N,12025.1547334,W,1,5,1.5,100.01,M,0.00,M,,*71
$GPGGA,070958.00,4501.3108383,N,12028.5006257,W,1,5,1.5,100.01,M,0.00,M,,*74
$GPGGA,052659.00,4457.4635033,N,11902.5781512,W,1,5,1.5,100.01,M,0.00,M,,*72
$GPGGA,091044.00,4522.4477359,N,12001.4267963,W,1,5,1.5,100.01,M,0.00,M,,*70
$GPGGA,014254.00,4516.2973209,N,11933.4061599,W,1,5,1.5,100.01,M,0.00,M,,*74
$GPGGA,171540.00,4508.6444668,N,11836.2857874,W,1,5,1.5,100.01,M,0.00,M,,*74
$GPGGA,163710.00,4523.2505766,N,12134.1437581,W,1,5,1.5,100.01,M,0.00,M,,*70
$GPGGA,064956.00,4505.7412887,N,12034.4528631,W,1,5,1.5,100.01,M,0.00,M,,*7F
$GPGGA,192147.00,4505.5284185,N,12018.1721562,W,1,5,1.5,100.01,M,0.00,M,,*7A
$GPGGA,230335.00,4506.2838804,N,11944.3605075,W,1,5,1.5,100.01,M,0.00,M,,*7A
$GPGGA,115238.00,4510.5570540,N,11921.1678906,W,1,5,1.5,100.01,M,0.00,M,,*78
$GPGGA,111310.00,4456.1274887,N,11823.1845159,W,1,5,1.5,100.01,M,0.00,M,,*74
$GPGGA,213756.00,4508.1417004,N,11905.1867812,W,1,5,1.5,100.01,M,0.00,M,,*7A
$GPGGA,091152.00,4535.1589399,N,12311.1502874,W,1,5,1.5,100.01,M,0.00,M,,*7D
$GPGGA,173928.00,4514.2178971,N,11955.3592838,W,1,5,1.5,100.01,M,0.00,M,,*79
$GPGGA,062350.00,4512.2775730,N,12258.5505018,W,1,5,1.5,100.01,M,0.00,M,,*7C
$GPGGA,075608.00,4525.2656428,N,12303.1644475,W,1,5,1.5,100.01,M,0.00,M,,*7E
$GPGGA,031108.00,4516.3964417,N,11923.2051954,W,1,5,1.5,100.01,M,0.00,M,,*7E
$GPGGA,054112.00,4502.2672963,N,11846.4869804,W,1,5,1.5,100.01,M,0.00,M,,*77
$GPGGA,203008.00,4517.3736949,N,12208.1241147,W,1,5,1.5,100.01,M,0.00,M,,*79
$GPGGA,053149.00,4522.3418089,N,12057.1742825,W,1,5,1.5,100.01,M,0.00,M,,*75
$GPGGA,080253.00,4456.5300138,N,12027.2129091,W,1,5,1.5,100.01,M,0.00,M,,*7A
$GPGGA,101630.00,4459.4940856,N,11854.2975209,W,1,5,1.5,100.01,M,0.00,M,,*7F
$GPGGA,153512.00,4503.4008837,N,11903.1021169,W,1,5,1.5,100.01,M,0.00,M,,*7A
$GPGGA,071639.00,4508.3610566,N,12038.3581908,W,1,5,1.5,100.01,M,0.00,M,,*7B
$GPGGA,143922.00,4521.3467973,N,11923.4647489,W,1,5,1.5,100.01,M,0.00,M,,*75
$GPGGA,194018.00,4524.5829242,N,12143.5478819,W,1,5,1.5,100.01,M,0.00,M,,*74
$GPGGA,210505.00,4517.4255174,N,12153.3286292,W,1,5,1.5,100.01,M,0.00,M,,*7D
$GPGGA,211245.00,4514.5203459,N,12154.4903340,W,1,5,1.5,100.01,M,0.00,M,,*7C
$GPGGA,132133.00,4504.5057691,N,11903.8909893,W,1,5,1.5,100.01,M,0.00,M,,*72
$GPGGA,230133.00,4519.5272585,N,12103.3794362,W,1,5,1.5,100.01,M,0.00,M,,*73
$GPGGA,194332.00,4506.3758076,N,12221.3716819,W,1,5,1.5,100.01,M,0.00,M,,*7F
$GPGGA,132132.00,4458.5280577,N,11830.5044130,W,1,5,1.5,100.01,M,0.00,M,,*74
$GPGGA,190645.00,4515.4207000,N,12223.0381001,W,1,5,1.5,100.01,M,0.00,M,,*7F
$GPGGA,111426.00,4511.5295963,N,12208.2603735,W,1,5,1.5,100.01,M,0.00,M,,*77
$GPGGA,025012.00,4517.3952861,N,12117.0264626,W,1,5,1.5,100.01,M,0.00,M,,*78
$GPGGA,065934.00,4513.4791680,N,11958.1185673,W,1,5,1.5,100.01,M,0.00,M,,*7F
$GPGGA,151228.00,4526.5823245,N,12129.5896222,W,1,5,1.5,100.01,M,0.00,M,,*71
$GPGGA,091719.00,4513.5661572,N,12138.2982895,W,1,5,1.5,100.01,M,0.00,M,,*73
$GPGGA,015305.00,4506.3337497,N,12119.5540050,W,1,5,1.5,100.01,M,0.00,M,,*7F
$GPGGA,115441.00,4505.2990851,N,12221.2426179,W,1,5,1.5,100.01,M,0.00,M,,*7E
$GPGGA,182016.00,4524.3892585,N,11919.4192765,W,1,5,1.5,100.01,M,0.00,M,,*77
$GPGGA,020108.00,4505.1178666,N,11848.4054047,W,1,5,1.5,100.01,M,0.00,M,,*7B
$GPGGA,045758.00,4509.3590070,N,11954.3114179,W,1,5,1.5,100.01,M,0.00,M,,*74
$GPGGA,050314.00,4503.1254891,N,11955.7756086,W,1,5,1.5,100.01,M,0.00,M,,*78
$GPGGA,080152.00,4506.5015973,N,12103.4609377,W,1,5,1.5,100.01,M,0.00,M,,*73
$GPGGA,074146.00,4459.4886694,N,11847.3239831,W,1,5,1.5,100.01,M,0.00,M,,*70
$GPGGA,061136.00,4519.5644270,N,11816.3311661,W,1,5,1.5,100.01,M,0.00,M,,*7D
$GPGGA,052050.00,4503.6591983,N,12001.4620387,W,1,5,1.5,100.01,M,0.00,M,,*78
$GPGGA,145919.00,4513.5437423,N,12046.1073066,W,1,5,1.5,100.01,M,0.00,M,,*79
$GPGGA,020821.00,4510.5321836,N,12122.4916619,W,1,5,1.5,100.01,M,0.00,M,,*78
$GPGGA,093856.00,4525.2142407,N,12302.4992962,W,1,5,1.5,100.01,M,0.00,M,,*77
$GPGGA,201637.00,4515.5221504,N,12015.1406606,W,1,5,1.5,100.01,M,0.00,M,,*7A
$GPGGA,232820.00,4531.3395913,N,12228.3214313,W,1,5,1.5,100.01,M,0.00,M,,*7C
$GPGGA,090543.00,4527.1545825,N,12203.3234368,W,1,5,1.5,100.01,M,0.00,M,,*73
$GPGGA,025456.00,4510.5351610,N,11951.1070637,W,1,5,1.5,100.01,M,0.00,M,,*73
$GPGGA,145951.00,4512.6420636,N,11849.4419772,W,1,5,1.5,100.01,M,0.00,M,,*7C
$GPGGA,084600.00,4524.5169534,N,12259.5410104,W,1,5,1.5,100.01,M,0.00,M,,*73
$GPGGA,172637.00,4520.2355384,N,11813.2659403,W,1,5,1.5,100.01,M,0.00,M,,*71
$GPGGA,014758.00,4518.0112716,N,11921.4468855,W,1,5,1.5,100.01,M,0.00,M,,*76
$GPGGA,081210.00,4505.1340398,N,12113.3298506,W,1,5,1.5,100.01,M,0.00,M,,*76
$GPGGA,213702.00,4502.5433854,N,11850.2532137,W,1,5,1.5,100.01,M,0.00,M,,*7F
$GPGGA,035859.00,4523.4229927,N,12045.5447961,W,1,5,1.5,100.01,M,0.00,M,,*72
$GPGGA,012402.00,4528.1920778,N,12149.5387487,W,1,5,1.5,100.01,M,0.00,M,,*7E
$GPGGA,114114.00,4521.3697785,N,12249.0525865,W,1,5,1.5,100.01,M,0.00,M,,*79
$GPGGA,165344.00,4516.1169179,N,11802.4314468,W,1,5,1.5,100.01,M,0.00,M,,*7A
$GPGGA,101753.00,4505.5292135,N,12114.5953477,W,1,5,1.5,100.01,M,0.00,M,,*78
$GPGGA,163222.00,4508.7327933,N,12216.1559674,W,1,5,1.5,100.01,M,0.00,M,,*73
$GPGGA,004157.00,4506.1235057,N,11852.3777120,W,1,5,1.5,100.01,M,0.00,M,,*70
$GPGGA,213528.00,4517.1898842,N,11856.3979984,W,1,5,1.5,100.01,M,0.00,M,,*7B
$GPGGA,065527.00,4517.5944044,N,12018.5222296,W,1,5,1.5,100.01,M,0.00,M,,*77
$GPGGA,145646.00,4504.3905004,N,12045.1738419,W,1,5,1.5,100.01,M,0.00,M,,*76
$GPGGA,044127.00,4509.5305239,N,12047.2970566,W,1,5,1.5,100.01,M,0.00,M,,*71
$GPGGA,022916.00,4513.2666348,N,12107.5397817,W,1,5,1.5,100.01,M,0.00,M,,*7A
$GPGGA,160305.00,4500.5283561,N,12053.2150353,W,1,5,1.5,100.01,M,0.00,M,,*77
$GPGGA,054757.00,4510.5511593,N,12030.2948655,W,1,5,1.5,100.01,M,0.00,M,,*75
$GPGGA,081009.00,4509.8542247,N,12042.5824767,W,1,5,1.5,100.01,M,0.00,M,,*75
$GPGGA,185336.00,4456.2883729,N,12003.6477440,W,1,5,1.5,100.01,M,0.00,M,,*79
$GPGGA,174234.00,4501.3417107,N,11921.2874406,W,1,5,1.5,100.01,M,0.00,M,,*7E
$GPGGA,105931.00,4530.5511515,N,12240.2993554,W,1,5,1.5,100.01,M,0.00,M,,*73
$GPGGA,050507.00,4518.5032551,N,11824.1583450,W,1,5,1.5,100.01,M,0.00,M,,*75
$GPGGA,075443.00,4513.1398546,N,11932.2647870,W,1,5,1.5,100.01,M,0.00,M,,*79
$GPGGA,053257.00,4502.0405753,N,11928.3915881,W,1,5,1.5,100.01,M,0.00,M,,*76
$GPGGA,204716.00,4530.4889126,N,11951.4359191,W,1,5,1.5,100.01,M,0.00,M,,*7C
$GPGGA,131258.00,4525.1777091,N,12004.2581092,W,1,5,1.5,100.01,M,0.00,M,,*79
$GPGGA,061041.00,4511.3309712,N,12048.2645684,W,1,5,1.5,100.01,M,0.00,M,,*71
$GPGGA,035608.00,4513.7583154,N,12052.5569073,W,1,5,1.5,100.01,M,0.00,M,,*72
$GPGGA,102929.00,4510.8759920,N,12150.5422958,W,1,5,1.5,100.01,M,0.00,M,,*74
$GPGGA,193000.00,4533.5682672,N,12317.5991518,W,1,5,1.5,100.01,M,0.00,M,,*71
$GPGGA,171158.00,4459.9669359,N,11938.4137292,W,1,5,1.5,100.01,M,0.00,M,,*7D
$GPGGA,010524.00,4522.3978716,N,12140.4757153,W,1,5,1.5,100.01,M,0.00,M,,*79
$GPGGA,202048.00,4517.2803943,N,12259.5480068,W,1,5,1.5,100.01,M,0.00,M,,*79
$GPGGA,091240.00,4521.2405480,N,11926.7902930,W,1,5,1.5,100.01,M,0.00,M,,*77
$GPGGA,122457.00,4514.2213415,N,11842.4820767,W,1,5,1.5,100.01,M,0.00,M,,*78
$GPGGA,231344.00,4510.3985427,N,11948.2520775,W,1,5,1.5,100.01,M,0.00,M,,*7F
$GPGGA,093010.00,4515.7795250,N,11933.4715226,W,1,5,1.5,100.01,M,0.00,M,,*72
$GPGGA,102009.00,4534.5233064,N,12244.9763536,W,1,5,1.5,100.01,M,0.00,M,,*7C
$GPGGA,073314.00,4525.2956129,N,11750.4610871,W,1,5,1.5,100.01,M,0.00,M,,*76
$GPGGA,190813.00,4508.5120193,N,12134.2842241,W,1,5,1.5,100.01,M,0.00,M,,*77
$GPGGA,173937.00,4504.2615273,N,12103.5276341,W,1,5,1.5,100.01,M,0.00,M,,*75
$GPGGA,182640.00,4502.3156989,N,11954.3485265,W,1,5,1.5,100.01,M,0.00,M,,*7F
$GPGGA,213828.00,4504.1581556,N,12036.3748999,W,1,5,1.5,100.01,M,0.00,M,,*74
$GPGGA,173641.00,4454.0846911,N,11943.4585890,W,1,5,1.5,100.01,M,0.00,M,,*78
$GPGGA,193219.00,4523.3003878,N,11949.5958385,W,1,5,1.5,100.01,M,0.00,M,,*72
$GPGGA,213535.00,4513.1789262,N,12131.5681850,W,1,5,1.5,100.01,M,0.00,M,,*79
$GPGGA,162529.00,4516.7102415,N,12131.4322003,W,1,5,1.5,100.01,M,0.00,M,,*72
$GPGGA,104529.00,4509.9860561,N,12154.4543722,W,1,5,1.5,100.01,M,0.00,M,,*7B
$GPGGA,173858.00,4502.2595099,N,12211.7722483,W,1,5,1.5,100.01,M,0.00,M,,*79
$GPGGA,141620.00,4503.7501480,N,11915.5477572,W,1,5,1.5,100.01,M,0.00,M,,*7E
$GPGGA,190952.00,4505.5266579,N,12133.2245544,W,1,5,1.5,100.01,M,0.00,M,,*77
$GPGGA,033732.00,4508.1255667,N,12118.3772411,W,1,5,1.5,100.01,M,0.00,M,,*7A
$GPGGA,074042.00,4456.4074202,N,11820.2333091,W,1,5,1.5,100.01,M,0.00,M,,*7D
$GPGGA,054221.00,4459.3416071,N,12012.4650219,W,1,5,1.5,100.01,M,0.00,M,,*78
$GPGGA,015014.00,4521.4386019,N,12111.1388201,W,1,5,1.5,100.01,M,0.00,M,,*7E
$GPGGA,052423.00,4529.2385920,N,12251.3294360,W,1,5,1.5,100.01,M,0.00,M,,*7C
$GPGGA,154550.00,4519.3127547,N,11823.5525695,W,1,5,1.5,100.01,M,0.00,M,,*73
$GPGGA,103151.00,4508.2071574,N,12106.9234565,W,1,5,1.5,100.01,M,0.00,M,,*7D
$GPGGA,004230.00,4510.3683648,N,11834.4168532,W,1,5,1.5,100.01,M,0.00,M,,*7E
$GPGGA,063829.00,4518.5531001,N,12248.5047131,W,1,5,1.5,100.01,M,0.00,M,,*7A
$GPGGA,112310.00,4527.5992210,N,12203.3965735,W,1,5,1.5,100.01,M,0.00,M,,*75
$GPGGA,115116.00,4517.0259842,N,11846.5484640,W,1,5,1.5,100.01,M,0.00,M,,*7E
$GPGGA,104453.00,4516.9481772,N,11929.2172609,W,1,5,1.5,100.01,M,0.00,M,,*73
$GPGGA,061538.00,4456.1028560,N,12006.8781895,W,1,5,1.5,100.01,M,0.00,M,,*7A
$GPGGA,165507.00,4458.2106718,N,11938.4577494,W,1,5,1.5,100.01,M,0.00,M,,*73
$GPGGA,100725.00,4520.4741126,N,12038.4869833,W,1,5,1.5,100.01,M,0.00,M,,*7D
$GPGGA,023910.00,4512.4791827,N,11837.3361829,W,1,5,1.5,100.01,M,0.00,M,,*7A
$GPGGA,203139.00,4500.2197897,N,11924.0241338,W,1,5,1.5,100.01,M,0.00,M,,*7F
$GPGGA,092328.00,4500.3448409,N,11822.1083162,W,1,5,1.5,100.01,M,0.00,M,,*7D
$GPGGA,101236.00,4537.4032693,N,12252.3334791,W,1,5,1.5,100.01,M,0.00,M,,*7A
$GPGGA,064057.00,4522.2964514,N,11859.5220398,W,1,5,1.5,100.01,M,0.00,M,,*74
$GPGGA,224711.00,4511.5896981,N,12119.1613647,W,1,5,1.5,100.01,M,0.00,M,,*75
$GPGGA,075839.00,4505.2868322,N,12117.3468277,W,1,5,1.5,100.01,M,0.00,M,,*73
$GPGGA,011858.00,4518.5001997,N,12135.4238244,W,1,5,1.5,100.01,M,0.00,M,,*7A
$GPGGA,121108.00,4503.4983025,N,12106.2412317,W,1,5,1.5,100.01,M,0.00,M,,*73
$GPGGA,115903.00,4505.5724853,N,11909.5647737,W,1,5,1.5,100.01,M,0.00,M,,*7D
$GPGGA,234709.00,4518.7777167,N,11913.3592598,W,1,5,1.5,100.01,M,0.00,M,,*7E
$GPGGA,013519.00,4503.2922886,N,11932.8301783,W,1,5,1.5,100.01,M,0.00,M,,*71
$GPGGA,213559.00,4503.4957815,N,12040.1427284,W,1,5,1.5,100.01,M,0.00,M,,*7E
$GPGGA,140958.00,4520.7253530,N,11924.1550917,W,1,5,1.5,100.01,M,0.00,M,,*79
$GPGGA,093907.00,4538.6526550,N,12243.4084889,W,1,5,1.5,100.01,M,0.00,M,,*71
$GPGGA,004045.00,4512.3966668,N,12020.4513575,W,1,5,1.5,100.01,M,0.00,M,,*7F
$GPGGA,052727.00,4457.6598344,N,11926.2807346,W,1,5,1.5,100.01,M,0.00,M,,*78
$GPGGA,141014.00,4503.5426433,N,11928.5658373,W,1,5,1.5,100.01,M,0.00,M,,*77
$GPGGA,202824.00,4515.4375774,N,12119.5868834,W,1,5,1.5,100.01,M,0.00,M,,*73
$GPGGA,054325.00,4532.5794640,N,12242.3903080,W,1,5,1.5,100.01,M,0.00,M,,*71
$GPGGA,165017.00,4512.4680174,N,12017.5125069,W,1,5,1.5,100.01,M,0.00,M,,*78
$GPGGA,180238.00,4519.2246542,N,12247.3822035,W,1,5,1.5,100.01,M,0.00,M,,*78
$GPGGA,085625.00,4541.3006355,N,12245.4827903,W,1,5,1.5,100.01,M,0.00,M,,*72
$GPGGA,024429.00,4507.5728801,N,12053.5169415,W,1,5,1.5,100.01,M,0.00,M,,*7F
$GPGGA,030548.00,4516.8935024,N,11829.3389236,W,1,5,1.5,100.01,M,0.00,M,,*77
$GPGGA,141240.00,4504.9879498,N,11820.3525990,W,1,5,1.5,100.01,M,0.00,M,,*79
$GPGGA,214030.00,4512.5740050,N,12050.4999921,W,1,5,1.5,100.01,M,0.00,M,,*7B
$GPGGA,042313.00,4520.4548725,N,12046.3590833,W,1,5,1.5,100.01,M,0.00,M,,*70
$GPGGA,222513.00,4520.4925398,N,11943.2385881,W,1,5,1.5,100.01,M,0.00,M,,*72
$GPGGA,200624.00,4515.3812672,N,12010.5538374,W,1,5,1.5,100.01,M,0.00,M,,*7A
$GPGGA,161345.00,4512.2574799,N,11931.3597111,W,1,5,1.5,100.01,M,0.00,M,,*78
$GPGGA,201601.00,4529.2170569,N,12221.3720443,W,1,5,1.5,100.01,M,0.00,M,,*78
$GPGGA,113914.00,4517.4945569,N,11947.4948142,W,1,5,1.5,100.01,M,0.00,M,,*7D
$GPGGA,205747.00,4519.0180714,N,12051.6229595,W,1,5,1.5,100.01,M,0.00,M,,*7F
$GPGGA,094825.00,4506.5669287,N,12230.4601768,W,1,5,1.5,100.01,M,0.00,M,,*73
$GPGGA,171404.00,4517.4529874,N,11833.2821674,W,1,5,1.5,100.01,M,0.00,M,,*7A
$GPGGA,104609.00,4510.3764058,N,12232.3671144,W,1,5,1.5,100.01,M,0.00,M,,*7C
$GPGGA,074955.00,4521.4091370,N,11950.5147141,W,1,5,1.5,100.01,M,0.00,M,,*70
$GPGGA,115043.00,4513.1610576,N,12210.0792578,W,1,5,1.5,100.01,M,0.00,M,,*7A
$GPGGA,103718.00,4455.3924530,N,11829.3598512,W,1,5,1.5,100.01,M,0.00,M,,*7B
$GPGGA,151259.00,4510.3539481,N,12025.2655851,W,1,5,1.5,100.01,M,0.00,M,,*79
$GPGGA,071956.00,4519.1580232,N,12203.5748122,W,1,5,1.5,100.01,M,0.00,M,,*78
$GPGGA,203920.00,4529.3127958,N,12147.5181878,W,1,5,1.5,100.01,M,0.00,M,,*77
$GPGGA,162548.00,4522.2198417,N,12121.5239343,W,1,5,1.5,100.01,M,0.00,M,,*7A
$GPGGA,134143.00,4513.1953956,N,12001.5287350,W,1,5,1.5,100.01,M,0.00,M,,*74
$GPGGA,162730.00,4519.1321396,N,12012.1294901,W,1,5,1.5,100.01,M,0.00,M,,*7C
$GPGGA,085640.00,4505.4072292,N,12140.9165529,W,1,5,1.5,100.01,M,0.00,M,,*7F
$GPGGA,224726.00,4500.1322152,N,11925.3584316,W,1,5,1.5,100.01,M,0.00,M,,*7D
$GPGGA,145825.00,4512.1874124,N,12008.4119171,W,1,5,1.5,100.01,M,0.00,M,,*7E
$GPGGA,001212.00,4500.1095335,N,11839.4884408,W,1,5,1.5,100.01,M,0.00,M,,*78
$GPGGA,035313.00,4504.1356927,N,11847.5397065,W,1,5,1.5,100.01,M,0.00,M,,*70
$GPGGA,081616.00,4511.4935656,N,12148.4624963,W,1,5,1.5,100.01,M,0.00,M,,*7E
$GPGGA,090847.00,4520.2061645,N,11930.4269010,W,1,5,1.5,100.01,M,0.00,M,,*7E
$GPGGA,053709.00,4456.2901612,N,11839.1815552,W,1,5,1.5,100.01,M,0.00,M,,*76
$GPGGA,113242.00,4455.2406673,N,11823.3746525,W,1,5,1.5,100.01,M,0.00,M,,*77
$GPGGA,111954.00,4518.1039335,N,12128.4380783,W,1,5,1.5,100.01,M,0.00,M,,*7B
$GPGGA,222850.00,4514.5497886,N,12101.4148945,W,1,5,1.5,100.01,M,0.00,M,,*7F
$GPGGA,105302.00,4510.5785899,N,12058.7790836,W,1,5,1.5,100.01,M,0.00,M,,*77
$GPGGA,231819.00,4514.2337941,N,12131.4074229,W,1,5,1.5,100.01,M,0.00,M,,*7C
$GPGGA,040401.00,4523.5725338,N,12205.4139842,W,1,5,1.5,100.01,M,0.00,M,,*76
$GPGGA,054901.00,4518.4819339,N,11825.4661931,W,1,5,1.5,100.01,M,0.00,M,,*72
$GPGGA,145549.00,4512.2093845,N,12010.7038455,W,1,5,1.5,100.01,M,0.00,M,,*7E
$GPGGA,112654.00,4503.4053786,N,12059.1504010,W,1,5,1.5,100.01,M,0.00,M,,*7D
$GPGGA,220159.00,4508.2377611,N,11825.4230744,W,1,5,1.5,100.01,M,0.00,M,,*71
$GPGGA,224212.00,4516.4528441,N,12135.4286470,W,1,5,1.5,100.01,M,0.00,M,,*79
$GPGGA,090044.00,4531.3394839,N,12258.1214149,W,1,5,1.5,100.01,M,0.00,M,,*7C
$GPGGA,105633.00,4501.2779790,N,12021.5705124,W,1,5,1.5,100.01,M,0.00,M,,*78
$GPGGA,084303.00,4457.3324893,N,11828.1360123,W,1,5,1.5,100.01,M,0.00,M,,*73
$GPGGA,071508.00,4516.8997005,N,12148.3351800,W,1,5,1.5,100.01,M,0.00,M,,*7A
$GPGGA,030242.00,4520.4524823,N,12111.5736986,W,1,5,1.5,100.01,M,0.00,M,,*77
$GPGGA,064025.00,4514.1150438,N,12146.2375397,W,1,5,1.5,100.01,M,0.00,M,,*7A
$GPGGA,013337.00,4512.4958861,N,12021.5259864,W,1,5,1.5,100.01,M,0.00,M,,*76
$GPGGA,065721.00,4458.7630029,N,11915.3000822,W,1,5,1.5,100.01,M,0.00,M,,*7A
$GPGGA,194755.00,4516.7035113,N,11831.5348257,W,1,5,1.5,100.01,M,0.00,M,,*70
$GPGGA,225817.00,4519.9475313,N,11901.2390796,W,1,5,1.5,100.01,M,0.00,M,,*7B
$GPGGA,015117.00,4503.5690820,N,12040.1449455,W,1,5,1.5,100.01,M,0.00,M,,*75
$GPGGA,130326.00,4524.5575314,N,11756.5655374,W,1,5,1.5,100.01,M,0.00,M,,*7E
$GPGGA,103019.00,4456.5845293,N,12008.4278411,W,1,5,1.5,100.01,M,0.00,M,,*74
$GPGGA,000230.00,4501.4652532,N,11932.3466294,W,1,5,1.5,100.01,M,0.00,M,,*7F
$GPGGA,221056.00,4505.3027925,N,11949.2218323,W,1,5,1.5,100.01,M,0.00,M,,*7E
$GPGGA,224015.00,4505.4471259,N,11849.5238387,W,1,5,1.5,100.01,M,0.00,M,,*76
$GPGGA,174257.00,4523.1757017,N,11952.3518026,W,1,5,1.5,100.01,M,0.00,M,,*7A
$GPGGA,053422.00,4506.2765035,N,12158.2071043,W,1,5,1.5,100.01,M,0.00,M,,*76
$GPGGA,185326.00,4501.4514106,N,11919.7820717,W,1,5,1.5,100.01,M,0.00,M,,*7A
$GPGGA,071326.00,4502.4576681,N,11904.5569318,W,1,5,1.5,100.01,M,0.00,M,,*7A
$GPGGA,203921.00,4513.5846433,N,12024.1710233,W,1,5,1.5,100.01,M,0.00,M,,*7C
$GPGGA,211936.00,4524.3421926,N,11953.0550863,W,1,5,1.5,100.01,M,0.00,M,,*7D
$GPGGA,031144.00,4526.2103925,N,12237.2007314,W,1,5,1.5,100.01,M,0.00,M,,*71
$GPGGA,145804.00,4522.2221305,N,12024.3762339,W,1,5,1.5,100.01,M,0.00,M,,*7B
$GPGGA,202920.00,4513.2043428,N,12010.4416454,W,1,5,1.5,100.01,M,0.00,M,,*7C
$GPGGA,002635.00,4520.4760036,N,12139.3371685,W,1,5,1.5,100.01,M,0.00,M,,*7B
$GPGGA,090851.00,4511.5246183,N,12117.5470574,W,1,5,1.5,100.01,M,0.00,M,,*70
$GPGGA,175810.00,4510.4244369,N,12004.3646894,W,1,5,1.5,100.01,M,0.00,M,,*7A
$GPGGA,081536.00,4525.5482660,N,12038.9760251,W,1,5,1.5,100.01,M,0.00,M,,*7D
$GPGGA,094813.00,4507.1373808,N,12017.2336248,W,1,5,1.5,100.01,M,0.00,M,,*77
$GPGGA,125832.00,4517.1636478,N,11941.3732855,W,1,5,1.5,100.01,M,0.00,M,,*7F
$GPGGA,112452.00,4455.1886262,N,11820.2270684,W,1,5,1.5,100.01,M,0.00,M,,*78
$GPGGA,054804.00,4506.4746885,N,12048.1837864,W,1,5,1.5,100.01,M,0.00,M,,*79
$GPGGA,213858.00,4518.5426265,N,11859.5483462,W,1,5,1.5,100.01,M,0.00,M,,*78
$GPGGA,051334.00,4535.4516382,N,12242.5052725,W,1,5,1.5,100.01,M,0.00,M,,*72
$GPGGA,062645.00,4502.4054777,N,11855.2069181,W,1,5,1.5,100.01,M,0.00,M,,*70
$GPGGA,091812.00,4522.3416846,N,12024.4051407,W,1,5,1.5,100.01,M,0.00,M,,*71
$GPGGA,100055.00,4512.5256875,N,12046.9324940,W,1,5,1.5,100.01,M,0.00,M,,*72
$GPGGA,194536.00,4523.3206779,N,12227.7745054,W,1,5,1.5,100.01,M,0.00,M,,*79
$GPGGA,060753.00,4507.5211971,N,12129.2229061,W,1,5,1.5,100.01,M,0.00,M,,*73
$GPGGA,065409.00,4519.1129416,N,12020.1876520,W,1,5,1.5,100.01,M,0.00,M,,*7E
$GPGGA,021901.00,4508.1194671,N,12123.9226259,W,1,5,1.5,100.01,M,0.00,M,,*72
$GPGGA,134048.00,4502.0877808,N,11859.2620549,W,1,5,1.5,100.01,M,0.00,M,,*74
$GPGGA,001818.00,4520.5659068,N,12018.5718541,W,1,5,1.5,100.01,M,0.00,M,,*7C
$GPGGA,173225.00,4515.2723273,N,12053.5714270,W,1,5,1.5,100.01,M,0.00,M,,*7F
$GPGGA,113126.00,4520.3986038,N,11827.2887393,W,1,5,1.5,100.01,M,0.00,M,,*74
$GPGGA,090459.00,4526.2139805,N,11810.3338263,W,1,5,1.5,100.01,M,0.00,M,,*7A
$GPGGA,184115.00,4520.3891794,N,11826.4416895,W,1,5,1.5,100.01,M,0.00,M,,*72
$GPGGA,123218.00,4520.3957596,N,12015.8309462,W,1,5,1.5,100.01,M,0.00,M,,*70
$GPGGA,150609.00,4505.5160726,N,11825.4076687,W,1,5,1.5,100.01,M,0.00,M,,*72
$GPGGA,112344.00,4503.1625516,N,12017.2465129,W,1,5,1.5,100.01,M,0.00,M,,*74
$GPGGA,160324.00,4510.4572070,N,11858.1983115,W,1,5,1.5,100.01,M,0.00,M,,*7D
$GPGGA,121650.00,4515.3052945,N,12041.2550266,W,1,5,1.5,100.01,M,0.00,M,,*71
$GPGGA,134454.00,4522.9426792,N,11812.2308531,W,1,5,1.5,100.01,M,0.00,M,,*7D
$GPGGA,214653.00,4504.2737727,N,12059.1951489,W,1,5,1.5,100.01,M,0.00,M,,*78
$GPGGA,084649.00,4519.3650806,N,12105.1898965,W,1,5,1.5,100.01,M,0.00,M,,*7A
$GPGGA,022546.00,4520.5453968,N,11905.3581316,W,1,5,1.5,100.01,M,0.00,M,,*7C
$GPGGA,021819.00,4522.1558582,N,11906.2482626,W,1,5,1.5,100.01,M,0.00,M,,*7A
$GPGGA,031407.00,4512.4291509,N,11830.4146426,W,1,5,1.5,100.01,M,0.00,M,,*72
$GPGGA,075019.00,4522.4946761,N,11842.6864500,W,1,5,1.5,100.01,M,0.00,M,,*7C
$GPGGA,164610.00,4514.5456081,N,12123.5446635,W,1,5,1.5,100.01,M,0.00,M,,*74
$GPGGA,152238.00,4508.5770546,N,12042.8377131,W,1,5,1.5,100.01,M,0.00,M,,*76
$GPGGA,050855.00,4507.5811657,N,12201.1067401,W,1,5,1.5,100.01,M,0.00,M,,*78
$GPGGA,154109.00,4521.8118597,N,11958.1074301,W,1,5,1.5,100.01,M,0.00,M,,*7A
$GPGGA,040019.00,4509.1130914,N,11820.2663053,W,1,5,1.5,100.01,M,0.00,M,,*79
$GPGGA,224445.00,4510.4313346,N,11833.3809575,W,1,5,1.5,100.01,M,0.00,M,,*77
$GPGGA,081749.00,4511.4127841,N,12148.4553371,W,1,5,1.5,100.01,M,0.00,M,,*7C
$GPGGA,101423.00,4510.3222098,N,12150.2746226,W,1,5,1.5,100.01,M,0.00,M,,*7C
$GPGGA,141353.00,4511.4221776,N,12137.3919797,W,1,5,1.5,100.01,M,0.00,M,,*71
$GPGGA,182140.00,4523.4746253,N,11918.2731206,W,1,5,1.5,100.01,M,0.00,M,,*77
$GPGGA,014825.00,4503.5019930,N,12043.4529366,W,1,5,1.5,100.01,M,0.00,M,,*7D
$GPGGA,170846.00,4525.1838723,N,11946.4848024,W,1,5,1.5,100.01,M,0.00,M,,*7C
$GPGGA,062757.00,4504.2473319,N,12036.1671640,W,1,5,1.5,100.01,M,0.00,M,,*77
$GPGGA,025339.00,4505.5202603,N,12020.1910808,W,1,5,1.5,100.01,M,0.00,M,,*7D
$GPGGA,013634.00,4506.2759393,N,11938.3527735,W,1,5,1.5,100.01,M,0.00,M,,*7B
$GPGGA,202226.00,4515.3563801,N,12221.1216089,W,1,5,1.5,100.01,M,0.00,M,,*71
$GPGGA,133922.00,4507.2785423,N,12141.3163241,W,1,5,1.5,100.01,M,0.00,M,,*7B
$GPGGA,012117.00,4512.2365095,N,12214.5610986,W,1,5,1.5,100.01,M,0.00,M,,*76
$GPGGA,033048.00,4515.4427427,N,11830.4810790,W,1,5,1.5,100.01,M,0.00,M,,*7A
$GPGGA,222814.00,4500.2293607,N,11933.4861356,W,1,5,1.5,100.01,M,0.00,M,,*78
$GPGGA,024743.00,4509.2961582,N,12056.3988480,W,1,5,1.5,100.01,M,0.00,M,,*74
$GPGGA,033237.00,4520.5016950,N,12215.4348811,W,1,5,1.5,100.01,M,0.00,M,,*72
$GPGGA,214019.00,4511.4613265,N,12130.1601503,W,1,5,1.5,100.01,M,0.00,M,,*71
$GPGGA,014501.00,4520.3873326,N,12126.1908331,W,1,5,1.5,100.01,M,0.00,M,,*72
$GPGGA,062729.00,4503.4937763,N,12050.2400714,W,1,5,1.5,100.01,M,0.00,M,,*7C
$GPGGA,185912.00,4514.6239382,N,12123.5977555,W,1,5,1.5,100.01,M,0.00,M,,*70
$GPGGA,192833.00,4513.1928781,N,11849.5656112,W,1,5,1.5,100.01,M,0.00,M,,*75
$GPGGA,020007.00,4507.1347449,N,12016.1860755,W,1,5,1.5,100.01,M,0.00,M,,*78
$GPGGA,224223.00,4522.7073943,N,12207.3700556,W,1,5,1.5,100.01,M,0.00,M,,*70
$GPGGA,045830.00,4523.1209774,N,12220.2238725,W,1,5,1.5,100.01,M,0.00,M,,*73
$GPGGA,132242.00,4523.5832308,N,11951.7207528,W,1,5,1.5,100.01,M,0.00,M,,*7C
$GPGGA,152502.00,4516.2043430,N,12132.4132913,W,1,5,1.5,100.01,M,0.00,M,,*76
$GPGGA,054339.00,4513.3000414,N,12101.6465305,W,1,5,1.5,100.01,M,0.00,M,,*72
$GPGGA,013034.00,4517.3263345,N,11828.2125996,W,1,5,1.5,100.01,M,0.00,M,,*7B
$GPGGA,171601.00,4458.4123504,N,11900.4678354,W,1,5,1.5,100.01,M,0.00,M,,*71
$GPGGA,101555.00,4458.5057545,N,12011.9419300,W,1,5,1.5,100.01,M,0.00,M,,*71
$GPGGA,092544.00,4521.2139015,N,12039.5322118,W,1,5,1.5,100.01,M,0.00,M,,*79
$GPGGA,113401.00,4515.1856730,N,11843.3331319,W,1,5,1.5,100.01,M,0.00,M,,*74
$GPGGA,092844.00,4523.2022050,N,12202.3640793,W,1,5,1.5,100.01,M,0.00,M,,*74
$GPGGA,114910.00,4507.1606137,N,12134.4177875,W,1,5,1.5,100.01,M,0.00,M,,*7B
$GPGGA,055738.00,4507.9768468,N,12158.3018743,W,1,5,1.5,100.01,M,0.00,M,,*7A
$GPGGA,103258.00,4526.0241724,N,11816.2369747,W,1,5,1.5,100.01,M,0.00,M,,*74
$GPGGA,071813.00,4507.1690301,N,11832.3903694,W,1,5,1.5,100.01,M,0.00,M,,*72
$GPGGA,205941.00,4506.2596600,N,12047.3992155,W,1,5,1.5,100.01,M,0.00,M,,*7D
$GPGGA,200957.00,4503.4935711,N,11957.6665900,W,1,5,1.5,100.01,M,0.00,M,,*79
$GPGGA,163544.00,4508.4563715,N,11824.4739614,W,1,5,1.5,100.01,M,0.00,M,,*74
$GPGGA,065814.00,4511.4468122,N,11934.4165728,W,1,5,1.5,100.01,M,0.00,M,,*7A
$GPGGA,191655.00,4511.1206649,N,11849.3851486,W,1,5,1.5,100.01,M,0.00,M,,*7F
$GPGGA,183837.00,4510.1368749,N,12029.5510271,W,1,5,1.5,100.01,M,0.00,M,,*72
$GPGGA,233408.00,4505.2912163,N,12217.3275810,W,1,5,1.5,100.01,M,0.00,M,,*74
$GPGGA,103147.00,4526.1604619,N,12253.9504275,W,1,5,1.5,100.01,M,0.00,M,,*78
$GPGGA,124155.00,4519.1680767,N,12047.2142647,W,1,5,1.5,100.01,M,0.00,M,,*79
$GPGGA,060203.00,4516.1083398,N,12042.2028419,W,1,5,1.5,100.01,M,0.00,M,,*77
$GPGGA,100441.00,4517.2006156,N,11955.1057102,W,1,5,1.5,100.01,M,0.00,M,,*77
$GPGGA,093849.00,4517.1466730,N,12111.2901225,W,1,5,1.5,100.01,M,0.00,M,,*7B
$GPGGA,132423.00,4502.4600394,N,11913.2860612,W,1,5,1.5,100.01,M,0.00,M,,*77
$GPGGA,202402.00,4516.5544474,N,12114.3316291,W,1,5,1.5,100.01,M,0.00,M,,*72
$GPGGA,121748.00,4510.1473002,N,11906.4547189,W,1,5,1.5,100.01,M,0.00,M,,*78
$GPGGA,020050.00,4454.3913771,N,11903.5742364,W,1,5,1.5,100.01,M,0.00,M,,*7F
$GPGGA,234329.00,4511.2862197,N,12056.4449822,W,1,5,1.5,100.01,M,0.00,M,,*77
$GPGGA,163516.00,4520.4897298,N,11813.7294329,W,1,5,1.5,100.01,M,0.00,M,,*71
$GPGGA,105757.00,4502.7969840,N,11909.9998375,W,1,5,1.5,100.01,M,0.00,M,,*70
$GPGGA,060747.00,4526.3086459,N,12157.5209183,W,1,5,1.5,100.01,M,0.00,M,,*79
$GPGGA,151150.00,4536.1068885,N,12256.1690185,W,1,5,1.5,100.01,M,0.00,M,,*70
$GPGGA,153513.00,4520.1332249,N,11924.5166000,W,1,5,1.5,100.01,M,0.00,M,,*7B
$GPGGA,131552.00,4518.4148335,N,12031.4576344,W,1,5,1.5,100.01,M,0.00,M,,*78
$GPGGA,142002.00,4459.2747510,N,11945.4086085,W,1,5,1.5,100.01,M,0.00,M,,*7B
$GPGGA,220947.00,4505.3595509,N,11949.5213808,W,1,5,1.5,100.01,M,0.00,M,,*76
$GPGGA,024722.00,4505.3816875,N,11935.8229765,W,1,5,1.5,100.01,M,0.00,M,,*76
$GPGGA,185147.00,4511.1740471,N,11827.9160721,W,1,5,1.5,100.01,M,0.00,M,,*77
$GPGGA,045014.00,4502.4510974,N,11928.1161227,W,1,5,1.5,100.01,M,0.00,M,,*71
$GPGGA,095433.00,4539.3004184,N,12243.2851007,W,1,5,1.5,100.01,M,0.00,M,,*79
$GPGGA,085615.00,4529.4901705,N,12033.2638994,W,1,5,1.5,100.01,M,0.00,M,,*7C
$GPGGA,120953.00,4524.1404177,N,11832.5652272,W,1,5,1.5,100.01,M,0.00,M,,*7E
$GPGGA,184240.00,4509.3363851,N,12013.0360253,W,1,5,1.5,100.01,M,0.00,M,,*75
$GPGGA,184022.00,4458.3691668,N,11857.5163596,W,1,5,1.5,100.01,M,0.00,M,,*7B
$GPGGA,073840.00,4513.5973306,N,11922.4967484,W,1,5,1.5,100.01,M,0.00,M,,*74
$GPGGA,141954.00,4509.1964995,N,11908.1996133,W,1,5,1.5,100.01,M,0.00,M,,*73
$GPGGA,095305.00,4506.4278329,N,12012.1689316,W,1,5,1.5,100.01,M,0.00,M,,*71
$GPGGA,075658.00,4521.2315461,N,11845.3266042,W,1,5,1.5,100.01,M,0.00,M,,*7C
$GPGGA,062850.00,4520.4511423,N,12120.1040214,W,1,5,1.5,100.01,M,0.00,M,,*73
$GPGGA,173652.00,4455.2213423,N,11832.3451228,W,1,5,1.5,100.01,M,0.00,M,,*7E
$GPGGA,082539.00,4508.5004031,N,12043.9965911,W,1,5,1.5,100.01,M,0.00,M,,*7E
$GPGGA,135134.00,4523.6014903,N,12013.8332653,W,1,5,1.5,100.01,M,0.00,M,,*7C
$GPGGA,104501.00,4540.1762436,N,12247.0255780,W,1,5,1.5,100.01,M,0.00,M,,*77
$GPGGA,045840.00,4512.5138373,N,12137.5997679,W,1,5,1.5,100.01,M,0.00,M,,*74
$GPGGA,135037.00,4520.3252555,N,11817.8981015,W,1,5,1.5,100.01,M,0.00,M,,*7E
$GPGGA,063832.00,4509.2009188,N,11920.2513253,W,1,5,1.5,100.01,M,0.00,M,,*7B
$GPGGA,040011.00,4516.3073712,N,12149.3069420,W,1,5,1.5,100.01,M,0.00,M,,*7B
$GPGGA,062419.00,4515.1258086,N,12035.2197648,W,1,5,1.5,100.01,M,0.00,M,,*70
$GPGGA,043825.00,4454.5048869,N,11837.3983349,W,1,5,1.5,100.01,M,0.00,M,,*7B
$GPGGA,154505.00,4521.1468928,N,12014.5636330,W,1,5,1.5,100.01,M,0.00,M,,*75
$GPGGA,050505.00,4519.5411771,N,11854.2383403,W,1,5,1.5,100.01,M,0.00,M,,*77
$GPGGA,200319.00,4520.2287081,N,11832.3122085,W,1,5,1.5,100.01,M,0.00,M,,*75
$GPGGA,101744.00,4517.3354452,N,11855.3876419,W,1,5,1.5,100.01,M,0.00,M,,*73
$GPGGA,082420.00,4521.5292359,N,12126.2701217,W,1,5,1.5,100.01,M,0.00,M,,*74
$GPGGA,123248.00,4504.5042178,N,12150.4285265,W,1,5,1.5,100.01,M,0.00,M,,*74
$GPGGA,070408.00,4456.5656083,N,11833.2807606,W,1,5,1.5,100.01,M,0.00,M,,*79
$GPGGA,214428.00,4507.4842612,N,11858.2473050,W,1,5,1.5,100.01,M,0.00,M,,*7D
$GPGGA,004408.00,4522.3698622,N,11946.6640897,W,1,5,1.5,100.01,M,0.00,M,,*7D
$GPGGA,085027.00,4517.1916427,N,12155.3252301,W,1,5,1.5,100.01,M,0.00,M,,*78
$GPGGA,051547.00,4515.4116232,N,12149.1761247,W,1,5,1.5,100.01,M,0.00,M,,*76
$GPGGA,012304.00,4526.4679136,N,12156.4177687,W,1,5,1.5,100.01,M,0.00,M,,*7B
$GPGGA,061255.00,4522.2633154,N,12046.4717678,W,1,5,1.5,100.01,M,0.00,M,,*72
$GPGGA,203454.00,4507.1586913,N,11900.4566247,W,1,5,1.5,100.01,M,0.00,M,,*75
$GPGGA,231117.00,4510.4388091,N,11950.4529438,W,1,5,1.5,100.01,M,0.00,M,,*7E
$GPGGA,035225.00,4509.5620154,N,11817.4217620,W,1,5,1.5,100.01,M,0.00,M,,*7F
$GPGGA,070552.00,4507.3622355,N,12138.1869482,W,1,5,1.5,100.01,M,0.00,M,,*7B
$GPGGA,094945.00,4528.2491927,N,12257.3094926,W,1,5,1.5,100.01,M,0.00,M,,*73
$GPGGA,223112.00,4541.3869758,N,12244.5293137,W,1,5,1.5,100.01,M,0.00,M,,*7D
$GPGGA,002132.00,4515.3177173,N,12057.5952535,W,1,5,1.5,100.01,M,0.00,M,,*76
$GPGGA,230402.00,4509.4666415,N,12246.1271651,W,1,5,1.5,100.01,M,0.00,M,,*76
$GPGGA,123420.00,4509.1466395,N,12230.1403682,W,1,5,1.5,100.01,M,0.00,M,,*73
$GPGGA,211641.00,4515.1616047,N,12211.3940835,W,1,5,1.5,100.01,M,0.00,M,,*79
$GPGGA,121424.00,4528.1919607,N,12044.4482737,W,1,5,1.5,100.01,M,0.00,M,,*7F
$GPGGA,081658.00,4506.9280135,N,11950.1859646,W,1,5,1.5,100.01,M,0.00,M,,*73
$GPGGA,032702.00,4511.4942867,N,11951.1180639,W,1,5,1.5,100.01,M,0.00,M,,*71
$GPGGA,144551.00,4510.3397612,N,12007.3617015,W,1,5,1.5,100.01,M,0.00,M,,*77
$GPGGA,021401.00,4503.1203121,N,12008.9816936,W,1,5,1.5,100.01,M,0.00,M,,*78
$GPGGA,230009.00,4504.2984893,N,11938.3584339,W,1,5,1.5,100.01,M,0.00,M,,*76
$GPGGA,064908.00,4515.4174899,N,12209.7532913,W,1,5,1.5,100.01,M,0.00,M,,*77
$GPGGA,151342.00,4517.2501090,N,12044.2170900,W,1,5,1.5,100.01,M,0.00,M,,*79
$GPGGA,072617.00,4511.5492973,N,11930.2595347,W,1,5,1.5,100.01,M,0.00,M,,*7D
$GPGGA,023504.00,4513.4027789,N,12111.4263302,W,1,5,1.5,100.01,M,0.00,M,,*7B
$GPGGA,060252.00,4459.1307293,N,12008.7575669,W,1,5,1.5,100.01,M,0.00,M,,*7F
$GPGGA,075439.00,4516.7335996,N,12042.5489591,W,1,5,1.5,100.01,M,0.00,M,,*79
$GPGGA,185711.00,4457.2153591,N,11921.4319785,W,1,5,1.5,100.01,M,0.00,M,,*71
$GPGGA,142515.00,4507.9680673,N,12130.2530201,W,1,5,1.5,100.01,M,0.00,M,,*7C
$GPGGA,145625.00,4517.1709947,N,12104.5591639,W,1,5,1.5,100.01,M,0.00,M,,*7E
$GPGGA,111741.00,4522.4555664,N,11842.3397110,W,1,5,1.5,100.01,M,0.00,M,,*78
$GPGGA,231413.00,4519.5479906,N,12141.5286465,W,1,5,1.5,100.01,M,0.00,M,,*79
$GPGGA,100206.00,4505.3532581,N,11924.1283507,W,1,5,1.5,100.01,M,0.00,M,,*70
$GPGGA,012334.00,4533.1378372,N,12308.3619706,W,1,5,1.5,100.01,M,0.00,M,,*76
$GPGGA,012723.00,4508.1780347,N,12107.4201629,W,1,5,1.5,100.01,M,0.00,M,,*72
$GPGGA,121817.00,4517.2366721,N,11957.4310111,W,1,5,1.5,100.01,M,0.00,M,,*7D
$GPGGA,091621.00,4523.5022735,N,12000.5111985,W,1,5,1.5,100.01,M,0.00,M,,*75
$GPGGA,221914.00,4521.9263564,N,12101.3596164,W,1,5,1.5,100.01,M,0.00,M,,*70
$GPGGA,071451.00,4503.4771406,N,11821.2400317,W,1,5,1.5,100.01,M,0.00,M,,*74
$GPGGA,133815.00,4511.2781625,N,12040.1988434,W,1,5,1.5,100.01,M,0.00,M,,*72
$GPGGA,221917.00,4504.4684638,N,11852.6580597,W,1,5,1.5,100.01,M,0.00,M,,*78
$GPGGA,045710.00,4516.5748341,N,11823.1463169,W,1,5,1.5,100.01,M,0.00,M,,*71
$GPGGA,165222.00,4511.5804757,N,12223.0046721,W,1,5,1.5,100.01,M,0.00,M,,*74
$GPGGA,183630.00,4517.1987167,N,11815.4255151,W,1,5,1.5,100.01,M,0.00,M,,*7F
$GPGGA,044905.00,4528.4879596,N,12306.1709204,W,1,5,1.5,100.01,M,0.00,M,,*7F
$GPGGA,173115.00,4509.1279009,N,12042.8514422,W,1,5,1.5,100.01,M,0.00,M,,*7A
$GPGGA,100827.00,4511.1813473,N,12208.3527634,W,1,5,1.5,100.01,M,0.00,M,,*72
$GPGGA,131201.00,4524.2230129,N,12001.5119329,W,1,5,1.5,100.01,M,0.00,M,,*77
$GPGGA,131501.00,4458.3786696,N,11947.6039910,W,1,5,1.5,100.01,M,0.00,M,,*78
$GPGGA,103224.00,4517.5209254,N,11911.2178444,W,1,5,1.5,100.01,M,0.00,M,,*72
$GPGGA,213513.00,4524.3245876,N,12145.4179337,W,1,5,1.5,100.01,M,0.00,M,,*79
$GPGGA,120707.00,4501.4814717,N,11842.8677823,W,1,5,1.5,100.01,M,0.00,M,,*7D
$GPGGA,024534.00,4520.1614628,N,12142.8699194,W,1,5,1.5,100.01,M,0.00,M,,*70
$GPGGA,001430.00,4507.4925789,N,11940.8343806,W,1,5,1.5,100.01,M,0.00,M,,*7C
$GPGGA,145243.00,4527.3824494,N,12137.3403476,W,1,5,1.5,100.01,M,0.00,M,,*7D
$GPGGA,104938.00,4510.4234497,N,12227.1409908,W,1,5,1.5,100.01,M,0.00,M,,*7A
$GPGGA,054202.00,4519.9306571,N,11909.4689388,W,1,5,1.5,100.01,M,0.00,M,,*78
$GPGGA,185815.00,4459.9409826,N,11848.2322736,W,1,5,1.5,100.01,M,0.00,M,,*7C
$GPGGA,063737.00,4503.3793638,N,12039.3308454,W,1,5,1.5,100.01,M,0.00,M,,*7C
$GPGGA,094404.00,4521.4137906,N,11825.2521729,W,1,5,1.5,100.01,M,0.00,M,,*79
$GPGGA,061103.00,4525.2610929,N,11836.5725531,W,1,5,1.5,100.01,M,0.00,M,,*74
$GPGGA,070704.00,4500.1464972,N,11814.4350323,W,1,5,1.5,100.01,M,0.00,M,,*7C
$GPGGA,123800.00,4516.3644666,N,12117.7023631,W,1,5,1.5,100.01,M,0.00,M,,*74
$GPGGA,093326.00,4510.1316658,N,12046.1802028,W,1,5,1.5,100.01,M,0.00,M,,*7C
$GPGGA,212555.00,4509.4848884,N,11946.2738005,W,1,5,1.5,100.01,M,0.00,M,,*77
$GPGGA,112933.00,4523.5495708,N,12044.2446323,W,1,5,1.5,100.01,M,0.00,M,,*73
$GPGGA,184355.00,4506.1019419,N,12138.2993255,W,1,5,1.5,100.01,M,0.00,M,,*79
$GPGGA,132432.00,4520.1463568,N,12100.5199036,W,1,5,1.5,100.01,M,0.00,M,,*71
$GPGGA,152136.00,4502.6456282,N,11831.3134762,W,1,5,1.5,100.01,M,0.00,M,,*7B
$GPGGA,014534.00,4518.3007256,N,11826.2333767,W,1,5,1.5,100.01,M,0.00,M,,*7E
$GPGGA,114500.00,4459.2542115,N,12000.5512191,W,1,5,1.5,100.01,M,0.00,M,,*7F
$GPGGA,103552.00,4523.5251965,N,12033.3612252,W,1,5,1.5,100.01,M,0.00,M,,*76
$GPGGA,235451.00,4511.5311930,N,11952.2100576,W,1,5,1.5,100.01,M,0.00,M,,*7F
$GPGGA,161527.00,4501.1611074,N,11956.4907981,W,1,5,1.5,100.01,M,0.00,M,,*7D
$GPGGA,030721.00,4530.0365482,N,12236.4576441,W,1,5,1.5,100.01,M,0.00,M,,*71
$GPGGA,055905.00,4524.4446175,N,12056.3995968,W,1,5,1.5,100.01,M,0.00,M,,*74
$GPGGA,195751.00,4517.5710328,N,12158.5827086,W,1,5,1.5,100.01,M,0.00,M,,*75
$GPGGA,235539.00,4534.5953315,N,12144.3125872,W,1,5,1.5,100.01,M,0.00,M,,*75
$GPGGA,211829.00,4506.4220755,N,12218.4525433,W,1,5,1.5,100.01,M,0.00,M,,*70
$GPGGA,115843.00,4501.4620840,N,12014.3434660,W,1,5,1.5,100.01,M,0.00,M,,*7F
$GPGGA,192814.00,4517.5151048,N,12057.3154166,W,1,5,1.5,100.01,M,0.00,M,,*70
$GPGGA,073053.00,4506.1399028,N,12125.5578065,W,1,5,1.5,100.01,M,0.00,M,,*7B
$GPGGA,143415.00,4540.1966182,N,12257.3847487,W,1,5,1.5,100.01,M,0.00,M,,*7F
$GPGGA,191838.00,4512.8985148,N,11841.0485579,W,1,5,1.5,100.01,M,0.00,M,,*79
$GPGGA,045248.00,4522.5534568,N,12210.3728171,W,1,5,1.5,100.01,M,0.00,M,,*74
$GPGGA,172106.00,4514.1862847,N,12056.4358026,W,1,5,1.5,100.01,M,0.00,M,,*70
$GPGGA,221315.00,4502.4189086,N,11937.2573616,W,1,5,1.5,100.01,M,0.00,M,,*7F
$GPGGA,065820.00,4509.3938965,N,12131.1032042,W,1,5,1.5,100.01,M,0.00,M,,*73
$GPGGA,195613.00,4517.1859328,N,12106.9025910,W,1,5,1.5,100.01,M,0.00,M,,*7F
$GPGGA,002019.00,4458.5250230,N,12009.4716103,W,1,5,1.5,100.01,M,0.00,M,,*77
$GPGGA,030003.00,4510.4058809,N,11953.5396063,W,1,5,1.5,100.01,M,0.00,M,,*74
$GPGGA,065037.00,4505.4105581,N,12037.2975050,W,1,5,1.5,100.01,M,0.00,M,,*7B
$GPGGA,074611.00,4522.4520375,N,12043.2389827,W,1,5,1.5,100.01,M,0.00,M,,*70
$GPGGA,095708.00,4509.5535097,N,12152.1223430,W,1,5,1.5,100.01,M,0.00,M,,*7C
$GPGGA,133013.00,4511.3202991,N,12211.1128869,W,1,5,1.5,100.01,M,0.00,M,,*73
$GPGGA,103255.00,4515.5300506,N,12018.4545314,W,1,5,1.5,100.01,M,0.00,M,,*73
$GPGGA,083245.00,4508.4074685,N,12048.5434386,W,1,5,1.5,100.01,M,0.00,M,,*76
$GPGGA,221747.00,4504.2841148,N,12000.9325995,W,1,5,1.5,100.01,M,0.00,M,,*76
$GPGGA,210436.00,4512.5174863,N,11844.2981500,W,1,5,1.5,100.01,M,0.00,M,,*7A
$GPGGA,165501.00,4458.3693925,N,11837.2484007,W,1,5,1.5,100.01,M,0.00,M,,*74
$GPGGA,101417.00,4519.1168198,N,11851.3696073,W,1,5,1.5,100.01,M,0.00,M,,*78
$GPGGA,213152.00,4502.2053068,N,11848.2272705,W,1,5,1.5,100.01,M,0.00,M,,*73
$GPGGA,035138.00,4456.5219394,N,12237.5909402,W,1,5,1.5,100.01,M,0.00,M,,*77
$GPGGA,223237.00,4521.5126811,N,12048.7112080,W,1,5,1.5,100.01,M,0.00,M,,*72
$GPGGA,050703.00,4507.1224266,N,11943.3886036,W,1,5,1.5,100.01,M,0.00,M,,*71
$GPGGA,225115.00,4503.1737220,N,12009.4684136,W,1,5,1.5,100.01,M,0.00,M,,*7F
$GPGGA,163822.00,4523.1242063,N,12131.7105184,W,1,5,1.5,100.01,M,0.00,M,,*7D
$GPGGA,072401.00,4504.4453774,N,12138.1313429,W,1,5,1.5,100.01,M,0.00,M,,*7E
$GPGGA,004100.00,4519.5374627,N,12016.3816695,W,1,5,1.5,100.01,M,0.00,M,,*77
$GPGGA,052243.00,4522.1850012,N,12151.4688538,W,1,5,1.5,100.01,M,0.00,M,,*79
$GPGGA,115710.00,4515.3419562,N,12041.3740199,W,1,5,1.5,100.01,M,0.00,M,,*70
$GPGGA,172012.00,4506.3499921,N,12153.2292152,W,1,5,1.5,100.01,M,0.00,M,,*7B
$GPGGA,113141.00,4524.4164356,N,11814.5004230,W,1,5,1.5,100.01,M,0.00,M,,*75
$GPGGA,163731.00,4524.1613940,N,12128.0362568,W,1,5,1.5,100.01,M,0.00,M,,*75
$GPGGA,151415.00,4501.1204142,N,11908.1562046,W,1,5,1.5,100.01,M,0.00,M,,*79
$GPGGA,220017.00,4538.4113754,N,12303.1352854,W,1,5,1.5,100.01,M,0.00,M,,*7D
$GPGGA,025804.00,4520.3794829,N,11937.1265612,W,1,5,1.5,100.01,M,0.00,M,,*75
$GPGGA,112736.00,4526.2200053,N,11814.5416659,W,1,5,1.5,100.01,M,0.00,M,,*7D
$GPGGA,081506.00,4513.4157408,N,12058.2246082,W,1,5,1.5,100.01,M,0.00,M,,*7B
$GPGGA,025758.00,4516.2938800,N,12024.1047019,W,1,5,1.5,100.01,M,0.00,M,,*73
$GPGGA,002154.00,4521.3019689,N,12219.3908588,W,1,5,1.5,100.01,M,0.00,M,,*7D
$GPGGA,112618.00,4500.1559720,N,11926.2380940,W,1,5,1.5,100.01,M,0.00,M,,*77
$GPGGA,185930.00,4531.4716691,N,11954.4599073,W,1,5,1.5,100.01,M,0.00,M,,*7D
$GPGGA,022820.00,4508.8227537,N,12124.2752118,W,1,5,1.5,100.01,M,0.00,M,,*7C
$GPGGA,152427.00,4537.1903928,N,12300.1509290,W,1,5,1.5,100.01,M,0.00,M,,*73
$GPGGA,012604.00,4508.1154790,N,12017.4999883,W,1,5,1.5,100.01,M,0.00,M,,*73
$GPGGA,222937.00,4513.1330702,N,11829.3169520,W,1,5,1.5,100.01,M,0.00,M,,*7E
$GPGGA,052820.00,4456.3895356,N,11925.2231300,W,1,5,1.5,100.01,M,0.00,M,,*79
$GPGGA,094643.00,4521.2736203,N,11817.5646241,W,1,5,1.5,100.01,M,0.00,M,,*78
$GPGGA,012059.00,4528.2268190,N,12234.2612512,W,1,5,1.5,100.01,M,0.00,M,,*7A
$GPGGA,091724.00,4516.1072477,N,12108.3591985,W,1,5,1.5,100.01,M,0.00,M,,*70
$GPGGA,225709.00,4455.2889703,N,11906.1794418,W,1,5,1.5,100.01,M,0.00,M,,*72
$GPGGA,105240.00,4518.1617968,N,12125.3715059,W,1,5,1.5,100.01,M,0.00,M,,*7A
$GPGGA,102001.00,4503.5346705,N,12118.0279002,W,1,5,1.5,100.01,M,0.00,M,,*7C
$GPGGA,154222.00,4538.0496591,N,12259.1907760,W,1,5,1.5,100.01,M,0.00,M,,*72
$GPGGA,192640.00,4510.3231791,N,12133.2979841,W,1,5,1.5,100.01,M,0.00,M,,*71
$GPGGA,161947.00,4503.3537083,N,11921.3173624,W,1,5,1.5,100.01,M,0.00,M,,*74
$GPGGA,203201.00,4504.2518614,N,12101.2551713,W,1,5,1.5,100.01,M,0.00,M,,*70
$GPGGA,223124.00,4517.5919809,N,12014.2312761,W,1,5,1.5,100.01,M,0.00,M,,*7D
$GPGGA,013329.00,4518.4315658,N,12108.2095027,W,1,5,1.5,100.01,M,0.00,M,,*74
$GPGGA,112234.00,4507.4299553,N,12145.1641588,W,1,5,1.5,100.01,M,0.00,M,,*7F
$GPGGA,094200.00,4501.4316499,N,11906.2134114,W,1,5,1.5,100.01,M,0.00,M,,*7B
$GPGGA,074258.00,4459.5344156,N,11846.1076439,W,1,5,1.5,100.01,M,0.00,M,,*7F
$GPGGA,125400.00,4512.1421284,N,12212.8087991,W,1,5,1.5,100.01,M,0.00,M,,*73
$GPGGA,190214.00,4515.5434728,N,11815.3500148,W,1,5,1.5,100.01,M,0.00,M,,*79
$GPGGA,124253.00,4457.2107185,N,11902.6930048,W,1,5,1.5,100.01,M,0.00,M,,*7D
$GPGGA,045953.00,4506.1845853,N,12013.0474697,W,1,5,1.5,100.01,M,0.00,M,,*7E
$GPGGA,021203.00,4507.5933423,N,12019.0564234,W,1,5,1.5,100.01,M,0.00,M,,*7B
$GPGGA,092659.00,4516.2155390,N,12209.5462452,W,1,5,1.5,100.01,M,0.00,M,,*7F
$GPGGA,144401.00,4522.5867623,N,11924.5808838,W,1,5,1.5,100.01,M,0.00,M,,*78
$GPGGA,015440.00,4516.1570885,N,11826.4987345,W,1,5,1.5,100.01,M,0.00,M,,*77
$GPGGA,223530.00,4502.2799741,N,11934.1937588,W,1,5,1.5,100.01,M,0.00,M,,*79
$GPGGA,141520.00,4519.5879714,N,12014.1012773,W,1,5,1.5,100.01,M,0.00,M,,*73
$GPGGA,013939.00,4520.2350347,N,12156.5058023,W,1,5,1.5,100.01,M,0.00,M,,*71
$GPGGA,052800.00,4509.3443052,N,12116.8687356,W,1,5,1.5,100.01,M,0.00,M,,*7B
$GPGGA,170121.00,4525.1962947,N,11947.4796025,W,1,5,1.5,100.01,M,0.00,M,,*7A
$GPGGA,050500.00,4513.1873903,N,12027.4616705,W,1,5,1.5,100.01,M,0.00,M,,*7A
$GPGGA,131148.00,4514.1466958,N,12037.7441273,W,1,5,1.5,100.01,M,0.00,M,,*73
$GPGGA,014721.00,4521.5627421,N,11943.1340695,W,1,5,1.5,100.01,M,0.00,M,,*7F
$GPGGA,183732.00,4520.5201019,N,11823.7818730,W,1,5,1.5,100.01,M,0.00,M,,*75
$GPGGA,141114.00,4513.4194158,N,12044.4137315,W,1,5,1.5,100.01,M,0.00,M,,*7D
$GPGGA,160109.00,4502.4947390,N,12148.1670759,W,1,5,1.5,100.01,M,0.00,M,,*72
$GPGGA,202443.00,4512.3468757,N,12010.3871132,W,1,5,1.5,100.01,M,0.00,M,,*7D
$GPGGA,223401.00,4520.4043093,N,12157.5746980,W,1,5,1.5,100.01,M,0.00,M,,*72
$GPGGA,191747.00,4516.1975392,N,12153.3208275,W,1,5,1.5,100.01,M,0.00,M,,*7B
$GPGGA,161303.00,4522.4281073,N,12109.3067653,W,1,5,1.5,100.01,M,0.00,M,,*7A
$GPGGA,184620.00,4511.4513495,N,12103.5752394,W,1,5,1.5,100.01,M,0.00,M,,*76
$GPGGA,022009.00,4507.1973976,N,11815.1766170,W,1,5,1.5,100.01,M,0.00,M,,*78
$GPGGA,124809.00,4518.2756575,N,11957.3607471,W,1,5,1.5,100.01,M,0.00,M,,*7B
$GPGGA,143425.00,4506.1742080,N,11811.2174746,W,1,5,1.5,100.01,M,0.00,M,,*78
$GPGGA,111820.00,4519.4171417,N,11931.4096038,W,1,5,1.5,100.01,M,0.00,M,,*77
$GPGGA,180837.00,4513.2357145,N,12120.5413066,W,1,5,1.5,100.01,M,0.00,M,,*79
$GPGGA,053705.00,4513.4250563,N,12027.5240073,W,1,5,1.5,100.01,M,0.00,M,,*7A
$GPGGA,013028.00,4517.4875939,N,12214.5286272,W,1,5,1.5,100.01,M,0.00,M,,*77
$GPGGA,172916.00,4518.5336012,N,12028.2826061,W,1,5,1.5,100.01,M,0.00,M,,*7D
$GPGGA,154722.00,4505.4043203,N,12101.8779493,W,1,5,1.5,100.01,M,0.00,M,,*72
$GPGGA,041836.00,4505.1635885,N,11849.1566548,W,1,5,1.5,100.01,M,0.00,M,,*7F
$GPGGA,151136.00,4505.5204902,N,12208.2540176,W,1,5,1.5,100.01,M,0.00,M,,*78
$GPGGA,064321.00,4521.4871406,N,11945.1027802,W,1,5,1.5,100.01,M,0.00,M,,*71
$GPGGA,004218.00,4507.5856971,N,11936.3093537,W,1,5,1.5,100.01,M,0.00,M,,*73
$GPGGA,081740.00,4524.3707475,N,12256.9804353,W,1,5,1.5,100.01,M,0.00,M,,*75
$GPGGA,020128.00,4524.2307665,N,12154.2316638,W,1,5,1.5,100.01,M,0.00,M,,*7A
$GPGGA,151933.00,4505.3346965,N,12139.5982701,W,1,5,1.5,100.01,M,0.00,M,,*77
$GPGGA,222438.00,4513.1232899,N,12012.1127286,W,1,5,1.5,100.01,M,0.00,M,,*72
$GPGGA,230640.00,4513.2956102,N,12023.1718559,W,1,5,1.5,100.01,M,0.00,M,,*70
$GPGGA,012546.00,4516.3663680,N,12052.2579377,W,1,5,1.5,100.01,M,0.00,M,,*7D
$GPGGA,213955.00,4507.5493721,N,11909.1129926,W,1,5,1.5,100.01,M,0.00,M,,*79
$GPGGA,070232.00,4505.2540016,N,12151.2835260,W,1,5,1.5,100.01,M,0.00,M,,*75
$GPGGA,105636.00,4528.1957577,N,12011.8088409,W,1,5,1.5,100.01,M,0.00,M,,*7A
$GPGGA,201445.00,4506.4274809,N,11858.5862884,W,1,5,1.5,100.01,M,0.00,M,,*72
$GPGGA,041501.00,4517.4429646,N,12144.5309566,W,1,5,1.5,100.01,M,0.00,M,,*7E
$GPGGA,004634.00,4508.5845439,N,11938.1940477,W,1,5,1.5,100.01,M,0.00,M,,*7B
$GPGGA,050154.00,4511.1313141,N,12119.4852430,W,1,5,1.5,100.01,M,0.00,M,,*79
$GPGGA,210811.00,4514.2111197,N,12009.2022602,W,1,5,1.5,100.01,M,0.00,M,,*70
$GPGGA,134807.00,4507.5861870,N,12019.5658953,W,1,5,1.5,100.01,M,0.00,M,,*7F
$GPGGA,212519.00,4500.1162073,N,11936.5106210,W,1,5,1.5,100.01,M,0.00,M,,*7F
$GPGGA,162352.00,4502.5868455,N,12005.3518610,W,1,5,1.5,100.01,M,0.00,M,,*74
$GPGGA,152057.00,4526.3253406,N,12124.5865744,W,1,5,1.5,100.01,M,0.00,M,,*76
$GPGGA,055411.00,4504.1542177,N,11823.5256998,W,1,5,1.5,100.01,M,0.00,M,,*78
$GPGGA,153302.00,4504.1221012,N,12108.1768966,W,1,5,1.5,100.01,M,0.00,M,,*74
$GPGGA,142120.00,4512.5041640,N,12141.2130510,W,1,5,1.5,100.01,M,0.00,M,,*78
$GPGGA,060023.00,4501.7656909,N,11847.1314965,W,1,5,1.5,100.01,M,0.00,M,,*7C
$GPGGA,144632.00,4457.2796966,N,11827.2201366,W,1,5,1.5,100.01,M,0.00,M,,*77
$GPGGA,090515.00,4512.7660639,N,11929.2061385,W,1,5,1.5,100.01,M,0.00,M,,*77
$GPGGA,193154.00,4516.3466526,N,12010.5017432,W,1,5,1.5,100.01,M,0.00,M,,*70
$GPGGA,161009.00,4458.5296734,N,11901.4151716,W,1,5,1.5,100.01,M,0.00,M,,*7C
$GPGGA,050437.00,4506.9718880,N,12007.1217153,W,1,5,1.5,100.01,M,0.00,M,,*7C
$GPGGA,215012.00,4510.3954315,N,11831.2040509,W,1,5,1.5,100.01,M,0.00,M,,*76
$GPGGA,143615.00,4511.2454067,N,12133.2783317,W,1,5,1.5,100.01,M,0.00,M,,*75
$GPGGA,072511.00,4510.3069398,N,12034.5975286,W,1,5,1.5,100.01,M,0.00,M,,*77
$GPGGA,114700.00,4503.4138192,N,12104.3982977,W,1,5,1.5,100.01,M,0.00,M,,*75
$GPGGA,045213.00,4512.3802450,N,11934.2064429,W,1,5,1.5,100.01,M,0.00,M,,*75
$GPGGA,093702.00,4541.2732935,N,12240.3463489,W,1,5,1.5,100.01,M,0.00,M,,*7D
$GPGGA,015534.00,4532.3085821,N,12301.2615300,W,1,5,1.5,100.01,M,0.00,M,,*7E
$GPGGA,162148.00,4510.5848658,N,12222.2139245,W,1,5,1.5,100.01,M,0.00,M,,*76
$GPGGA,194235.00,4516.5123298,N,12114.1205501,W,1,5,1.5,100.01,M,0.00,M,,*72
$GPGGA,014550.00,4507.4317861,N,12018.1314610,W,1,5,1.5,100.01,M,0.00,M,,*78
$GPGGA,003401.00,4516.3861832,N,12104.7913668,W,1,5,1.5,100.01,M,0.00,M,,*78
$GPGGA,201749.00,4526.8642014,N,12028.2582805,W,1,5,1.5,100.01,M,0.00,M,,*77
$GPGGA,162341.00,4507.3039812,N,11951.4834124,W,1,5,1.5,100.01,M,0.00,M,,*79
$GPGGA,104545.00,4502.3927441,N,11910.5137826,W,1,5,1.5,100.01,M,0.00,M,,*77
$GPGGA,225356.00,4457.5743917,N,11907.2990596,W,1,5,1.5,100.01,M,0.00,M,,*74
$GPGGA,231812.00,4506.3558569,N,12132.3087748,W,1,5,1.5,100.01,M,0.00,M,,*76
$GPGGA,123856.00,4507.2561502,N,12225.2747599,W,1,5,1.5,100.01,M,0.00,M,,*70
$GPGGA,202016.00,4504.7910851,N,12053.4928138,W,1,5,1.5,100.01,M,0.00,M,,*76
$GPGGA,050923.00,4528.2301690,N,12256.5141451,W,1,5,1.5,100.01,M,0.00,M,,*75
$GPGGA,104733.00,4520.2799474,N,12038.1182813,W,1,5,1.5,100.01,M,0.00,M,,*74
$GPGGA,123506.00,4509.6950401,N,11923.3346780,W,1,5,1.5,100.01,M,0.00,M,,*7E
$GPGGA,140142.00,4458.2056312,N,11845.4433022,W,1,5,1.5,100.01,M,0.00,M,,*78
$GPGGA,203210.00,4514.4840279,N,12225.1055313,W,1,5,1.5,100.01,M,0.00,M,,*7B
$GPGGA,094937.00,4509.2302235,N,12152.9759458,W,1,5,1.5,100.01,M,0.00,M,,*7E
$GPGGA,113438.00,4520.1969352,N,11943.2717029,W,1,5,1.5,100.01,M,0.00,M,,*75
$GPGGA,203136.00,4502.0319734,N,11855.3479595,W,1,5,1.5,100.01,M,0.00,M,,*7A
$GPGGA,062841.00,4530.5664972,N,11838.3616403,W,1,5,1.5,100.01,M,0.00,M,,*7F
$GPGGA,211323.00,4514.1326232,N,11954.2241763,W,1,5,1.5,100.01,M,0.00,M,,*71
$GPGGA,081824.00,4520.4912246,N,12225.4737019,W,1,5,1.5,100.01,M,0.00,M,,*7C
$GPGGA,121444.00,4520.5499932,N,12130.5492803,W,1,5,1.5,100.01,M,0.00,M,,*73
$GPGGA,155830.00,4517.5858636,N,12154.3098717,W,1,5,1.5,100.01,M,0.00,M,,*71
$GPGGA,101651.00,4459.5531616,N,12008.8327460,W,1,5,1.5,100.01,M,0.00,M,,*75
$GPGGA,140825.00,4515.1229756,N,11900.2803508,W,1,5,1.5,100.01,M,0.00,M,,*71
$GPGGA,234757.00,4513.1443750,N,12159.3469887,W,1,5,1.5,100.01,M,0.00,M,,*7D
$GPGGA,231439.00,4519.4407857,N,12224.1309343,W,1,5,1.5,100.01,M,0.00,M,,*7D
$GPGGA,072955.00,4507.3512407,N,12238.1793398,W,1,5,1.5,100.01,M,0.00,M,,*77
$GPGGA,232846.00,4512.1460078,N,12117.5458697,W,1,5,1.5,100.01,M,0.00,M,,*78
$GPGGA,065740.00,4504.1000264,N,12032.3687236,W,1,5,1.5,100.01,M,0.00,M,,*74
$GPGGA,013157.00,4515.5348164,N,11828.1033743,W,1,5,1.5,100.01,M,0.00,M,,*71
$GPGGA,235810.00,4458.1281579,N,11833.5095385,W,1,5,1.5,100.01,M,0.00,M,,*71
$GPGGA,011557.00,4512.5498264,N,12101.5817005,W,1,5,1.5,100.01,M,0.00,M,,*77
$GPGGA,095610.00,4507.0189335,N,11919.1486382,W,1,5,1.5,100.01,M,0.00,M,,*74
$GPGGA,205925.00,4513.7949480,N,11838.8860048,W,1,5,1.5,100.01,M,0.00,M,,*73
$GPGGA,225319.00,4515.9333521,N,12232.1662644,W,1,5,1.5,100.01,M,0.00,M,,*7D
$GPGGA,103044.00,4523.5478352,N,11836.5818630,W,1,5,1.5,100.01,M,0.00,M,,*7B
$GPGGA,085926.00,4524.1601913,N,11813.4508762,W,1,5,1.5,100.01,M,0.00,M,,*75
$GPGGA,115907.00,4505.5580073,N,12019.5102953,W,1,5,1.5,100.01,M,0.00,M,,*7E
$GPGGA,134011.00,4521.1849991,N,12115.3233340,W,1,5,1.5,100.01,M,0.00,M,,*7E
$GPGGA,192005.00,4513.3250138,N,12112.3171722,W,1,5,1.5,100.01,M,0.00,M,,*7F
$GPGGA,180635.00,4509.2237793,N,12217.4590669,W,1,5,1.5,100.01,M,0.00,M,,*71
$GPGGA,023020.00,4524.1160749,N,12201.1898233,W,1,5,1.5,100.01,M,0.00,M,,*7D
$GPGGA,084222.00,4508.3370475,N,12041.3678469,W,1,5,1.5,100.01,M,0.00,M,,*7E
$GPGGA,031133.00,4509.7495010,N,11955.2325878,W,1,5,1.5,100.01,M,0.00,M,,*72
$GPGGA,202106.00,4516.5492349,N,12201.1368300,W,1,5,1.5,100.01,M,0.00,M,,*75
$GPGGA,001845.00,4517.5623588,N,11919.1520118,W,1,5,1.5,100.01,M,0.00,M,,*78
$GPGGA,230805.00,4520.3605640,N,12223.0976891,W,1,5,1.5,100.01,M,0.00,M,,*7A
$GPGGA,123910.00,4515.5664033,N,12118.1845025,W,1,5,1.5,100.01,M,0.00,M,,*77
$GPGGA,014119.00,4455.5479391,N,11847.4496879,W,1,5,1.5,100.01,M,0.00,M,,*75
$GPGGA,173613.00,4516.1841574,N,12109.5846301,W,1,5,1.5,100.01,M,0.00,M,,*74
$GPGGA,032821.00,4458.2061059,N,11835.4857634,W,1,5,1.5,100.01,M,0.00,M,,*70
$GPGGA,114541.00,4459.5708509,N,11958.1544596,W,1,5,1.5,100.01,M,0.00,M,,*7B
$GPGGA,082359.00,4527.4085185,N,12121.2913067,W,1,5,1.5,100.01,M,0.00,M,,*72
$GPGGA,110127.00,4510.2508144,N,12047.2524134,W,1,5,1.5,100.01,M,0.00,M,,*72
$GPGGA,230902.00,4519.5499371,N,12143.3635688,W,1,5,1.5,100.01,M,0.00,M,,*78
$GPGGA,181124.00,4518.1336213,N,11822.1690298,W,1,5,1.5,100.01,M,0.00,M,,*7A
$GPGGA,185703.00,4511.0895176,N,12230.1719369,W,1,5,1.5,100.01,M,0.00,M,,*72
$GPGGA,034042.00,4530.5530962,N,12225.1975866,W,1,5,1.5,100.01,M,0.00,M,,*76
$GPGGA,112203.00,4514.5997420,N,12042.2488189,W,1,5,1.5,100.01,M,0.00,M,,*7F
$GPGGA,162137.00,4513.4344735,N,12037.4804597,W,1,5,1.5,100.01,M,0.00,M,,*7E
$GPGGA,010854.00,4520.2812436,N,11804.5751373,W,1,5,1.5,100.01,M,0.00,M,,*71
$GPGGA,103931.00,4506.2730740,N,12035.5375927,W,1,5,1.5,100.01,M,0.00,M,,*79
$GPGGA,203328.00,4502.0157112,N,11924.5421296,W,1,5,1.5,100.01,M,0.00,M,,*75
$GPGGA,194908.00,4513.1234844,N,12134.5638467,W,1,5,1.5,100.01,M,0.00,M,,*75
$GPGGA,030430.00,4454.3914606,N,11843.7834864,W,1,5,1.5,100.01,M,0.00,M,,*78
$GPGGA,195351.00,4500.2623783,N,11939.4748687,W,1,5,1.5,100.01,M,0.00,M,,*78
$GPGGA,070555.00,4504.3436107,N,11837.4200851,W,1,5,1.5,100.01,M,0.00,M,,*7A
$GPGGA,164802.00,4529.4571619,N,12212.5051910,W,1,5,1.5,100.01,M,0.00,M,,*7E
$GPGGA,210240.00,4531.5037375,N,11938.1481776,W,1,5,1.5,100.01,M,0.00,M,,*71
$GPGGA,071058.00,4517.9952584,N,12052.3817108,W,1,5,1.5,100.01,M,0.00,M,,*7D
$GPGGA,033555.00,4503.6016073,N,11847.1709863,W,1,5,1.5,100.01,M,0.00,M,,*74
$GPGGA,085629.00,4508.1815534,N,12114.4680043,W,1,5,1.5,100.01,M,0.00,M,,*73
$GPGGA,015705.00,4533.0495056,N,12301.3883403,W,1,5,1.5,100.01,M,0.00,M,,*75
$GPGGA,051844.00,4459.1422556,N,12016.3821406,W,1,5,1.5,100.01,M,0.00,M,,*72
$GPGGA,091315.00,4510.1586435,N,12135.5777318,W,1,5,1.5,100.01,M,0.00,M,,*74
$GPGGA,191613.00,4453.4056530,N,11911.9893242,W,1,5,1.5,100.01,M,0.00,M,,*73
$GPGGA,135001.00,4508.5819195,N,12138.1346256,W,1,5,1.5,100.01,M,0.00,M,,*70
$GPGGA,090055.00,4540.2092322,N,12240.2145562,W,1,5,1.5,100.01,M,0.00,M,,*7F
$GPGGA,021445.00,4526.5416144,N,11922.2673596,W,1,5,1.5,100.01,M,0.00,M,,*78
$GPGGA,042934.00,4508.3886878,N,11832.5938969,W,1,5,1.5,100.01,M,0.00,M,,*74
$GPGGA,163744.00,4517.3719460,N,12016.5392037,W,1,5,1.5,100.01,M,0.00,M,,*78
$GPGGA,061434.00,4511.4075306,N,12117.2069811,W,1,5,1.5,100.01,M,0.00,M,,*78
$GPGGA,145001.00,4525.2160014,N,12133.3434134,W,1,5,1.5,100.01,M,0.00,M,,*7C
$GPGGA,132347.00,4521.1508674,N,12016.3016230,W,1,5,1.5,100.01,M,0.00,M,,*75
$GPGGA,030731.00,4510.4451725,N,11823.4742084,W,1,5,1.5,100.01,M,0.00,M,,*7D
$GPGGA,123943.00,4513.2978974,N,12205.1563069,W,1,5,1.5,100.01,M,0.00,M,,*76
$GPGGA,180405.00,4457.1196530,N,11835.3735546,W,1,5,1.5,100.01,M,0.00,M,,*77
$GPGGA,074554.00,4506.4075324,N,12057.4062439,W,1,5,1.5,100.01,M,0.00,M,,*73
$GPGGA,044653.00,4502.1579205,N,11924.2917919,W,1,5,1.5,100.01,M,0.00,M,,*72
$GPGGA,034648.00,4509.2911847,N,12128.1219950,W,1,5,1.5,100.01,M,0.00,M,,*75
$GPGGA,204808.00,4538.6781703,N,12259.1684774,W,1,5,1.5,100.01,M,0.00,M,,*7D
$GPGGA,152546.00,4529.2512536,N,11936.3958654,W,1,5,1.5,100.01,M,0.00,M,,*7C
$GPGGA,015741.00,4501.5881159,N,12113.2836834,W,1,5,1.5,100.01,M,0.00,M,,*70
$GPGGA,080202.00,4513.4700422,N,11930.2243840,W,1,5,1.5,100.01,M,0.00,M,,*72
$GPGGA,065132.00,4514.4743955,N,12028.3564553,W,1,5,1.5,100.01,M,0.00,M,,*7B
$GPGGA,030609.00,4512.9105545,N,11950.3243439,W,1,5,1.5,100.01,M,0.00,M,,*7C
$GPGGA,113141.00,4501.4764045,N,12022.4557203,W,1,5,1.5,100.01,M,0.00,M,,*79
$GPGGA,031225.00,4503.5773649,N,11951.5501208,W,1,5,1.5,100.01,M,0.00,M,,*71
$GPGGA,224518.00,4524.3640242,N,11836.2441069,W,1,5,1.5,100.01,M,0.00,M,,*74
$GPGGA,110903.00,4506.1737814,N,12154.2997659,W,1,5,1.5,100.01,M,0.00,M,,*71
$GPGGA,093542.00,4509.3665144,N,12050.5805036,W,1,5,1.5,100.01,M,0.00,M,,*72
$GPGGA,115836.00,4518.4351015,N,12028.3842991,W,1,5,1.5,100.01,M,0.00,M,,*7D
$GPGGA,061543.00,4505.5690892,N,12056.4213681,W,1,5,1.5,100.01,M,0.00,M,,*7C
$GPGGA,030158.00,4459.2457695,N,11855.4147318,W,1,5,1.5,100.01,M,0.00,M,,*76
$GPGGA,155800.00,4524.1873618,N,12107.5642343,W,1,5,1.5,100.01,M,0.00,M,,*77
$GPGGA,051047.00,4510.3655171,N,12233.1356071,W,1,5,1.5,100.01,M,0.00,M,,*7C
$GPGGA,224053.00,4510.1938640,N,12015.5031021,W,1,5,1.5,100.01,M,0.00,M,,*7F
$GPGGA,101801.00,4500.2303918,N,11901.2182166,W,1,5,1.5,100.01,M,0.00,M,,*75
$GPGGA,025238.00,4508.1836026,N,12055.5530886,W,1,5,1.5,100.01,M,0.00,M,,*76
$GPGGA,102532.00,4510.1959744,N,12152.1409043,W,1,5,1.5,100.01,M,0.00,M,,*75
$GPGGA,090259.00,4520.4308423,N,12024.1385367,W,1,5,1.5,100.01,M,0.00,M,,*79
$GPGGA,075106.00,4514.2202849,N,12045.3127424,W,1,5,1.5,100.01,M,0.00,M,,*7E
$GPGGA,122518.00,4535.3690325,N,12243.2318888,W,1,5,1.5,100.01,M,0.00,M,,*7B
$GPGGA,084902.00,4501.1660180,N,11821.2553782,W,1,5,1.5,100.01,M,0.00,M,,*77
$GPGGA,071426.00,4528.1538175,N,12158.3224586,W,1,5,1.5,100.01,M,0.00,M,,*7D
$GPGGA,022623.00,4510.3918730,N,12130.9412890,W,1,5,1.5,100.01,M,0.00,M,,*71
$GPGGA,103922.00,4504.1757846,N,11834.4906679,W,1,5,1.5,100.01,M,0.00,M,,*73
$GPGGA,124554.00,4504.2190786,N,12100.5300235,W,1,5,1.5,100.01,M,0.00,M,,*7A
$GPGGA,222114.00,4500.2011083,N,11928.1579745,W,1,5,1.5,100.01,M,0.00,M,,*7E
$GPGGA,192238.00,4523.3555906,N,11950.5667684,W,1,5,1.5,100.01,M,0.00,M,,*71
$GPGGA,041725.00,4520.3486555,N,12123.3669528,W,1,5,1.5,100.01,M,0.00,M,,*73
$GPGGA,200505.00,4521.2920567,N,11914.2798569,W,1,5,1.5,100.01,M,0.00,M,,*70
$GPGGA,134048.00,4507.2802236,N,12141.2016340,W,1,5,1.5,100.01,M,0.00,M,,*79
$GPGGA,035917.00,4510.5594636,N,12121.1049154,W,1,5,1.5,100.01,M,0.00,M,,*75
$GPGGA,175411.00,4511.4307145,N,11957.3180174,W,1,5,1.5,100.01,M,0.00,M,,*7A
$GPGGA,033854.00,4516.9409843,N,12022.5235809,W,1,5,1.5,100.01,M,0.00,M,,*78
$GPGGA,011524.00,4529.3305155,N,12234.2191886,W,1,5,1.5,100.01,M,0.00,M,,*79
