$GPRMC,115613.00,A,4532.2863352,N,12257.6437174,W,000.0,000.0,190918,000.0,W*5D,11:56:13 19/09/18
$GPRMC,115735.00,A,4532.9135697,N,12256.5913354,W,000.0,000.0,190918,000.0,W*5C,11:57:35 19/09/18
$GPRMC,115832.00,A,4532.1540804,N,12256.5182991,W,000.0,000.0,190918,000.0,W*5D,11:58:32 19/09/18
$GPRMC,120017.00,A,4532.2168038,N,12256.4452629,W,000.0,000.0,190918,000.0,W*5B,12:00:17 19/09/18
$GPRMC,120303.00,A,4532.2795273,N,12256.3722266,W,000.0,000.0,190918,000.0,W*58,12:03:03 19/09/18
$GPRMC,120454.00,A,4532.3422507,N,12256.2991903,W,000.0,000.0,190918,000.0,W*58,12:04:54 19/09/18
$GPRMC,120633.00,A,4532.4049742,N,12256.2261540,W,000.0,000.0,190918,000.0,W*59,12:06:33 19/09/18
$GPRMC,120844.00,A,4532.4855008,N,12256.2145030,W,000.0,000.0,190918,000.0,W*5C,12:08:44 19/09/18
$GPRMC,120928.00,A,4532.5660275,N,12256.2028519,W,000.0,000.0,190918,000.0,W*52,12:09:28 19/09/18
$GPRMC,121206.00,A,4533.4655427,N,12256.1912008,W,000.0,000.0,190918,000.0,W*55,12:12:06 19/09/18
$GPRMC,121546.00,A,4532.0262122,N,12253.2161805,W,000.0,000.0,190918,000.0,W*5C,12:15:46 19/09/18
$GPRMC,121631.00,A,4533.2065199,N,12252.4558475,W,000.0,000.0,190918,000.0,W*5B,12:16:31 19/09/18
$GPRMC,121713.00,A,4534.2444019,N,12255.5604480,W,000.0,000.0,190918,000.0,W*55,12:17:13 19/09/18
$GPRMC,121903.00,A,4534.2703465,N,12255.5996723,W,000.0,000.0,190918,000.0,W*5B,12:19:03 19/09/18
$GPRMC,122001.00,A,4535.1111109,N,12253.8182660,W,000.0,000.0,190918,000.0,W*5B,12:20:01 19/09/18
$GPRMC,122025.00,A,4535.4495980,N,12254.2090967,W,000.0,000.0,190918,000.0,W*5F,12:20:25 19/09/18
$GPRMC,122047.00,A,4535.5233856,N,12251.1517183,W,000.0,000.0,190918,000.0,W*54,12:20:47 19/09/18
$GPRMC,122124.00,A,4536.9676513,N,12250.4337914,W,000.0,000.0,190918,000.0,W*50,12:21:24 19/09/18
$GPRMC,122317.00,A,4536.4285793,N,12249.2093128,W,000.0,000.0,190918,000.0,W*59,12:23:17 19/09/18
$GPRMC,122414.00,A,4536.3721186,N,12246.2221181,W,000.0,000.0,190918,000.0,W*54,12:24:14 19/09/18
$GPRMC,122518.00,A,4535.3690325,N,12243.2318888,W,000.0,000.0,190918,000.0,W*54,12:25:18 19/09/18
$GPRMC,122715.00,A,4536.1621247,N,12247.3053401,W,000.0,000.0,190918,000.0,W*51,12:27:15 19/09/18
$GPRMC,122811.00,A,4535.3027257,N,12248.1014916,W,000.0,000.0,190918,000.0,W*5F,12:28:11 19/09/18
$GPRMC,122824.00,A,4535.4717699,N,12247.2205022,W,000.0,000.0,190918,000.0,W*5C,12:28:24 19/09/18
$GPRMC,122934.00,A,4536.2545959,N,12249.3713080,W,000.0,000.0,190918,000.0,W*5A,12:29:34 19/09/18
$GPRMC,122953.00,A,4535.4768941,N,12252.5161781,W,000.0,000.0,190918,000.0,W*53,12:29:53 19/09/18
$GPRMC,123052.00,A,4536.2373226,N,12250.4671736,W,000.0,000.0,190918,000.0,W*52,12:30:52 19/09/18
$GPRMC,123224.00,A,4536.1117411,N,12248.3917056,W,000.0,000.0,190918,000.0,W*50,12:32:24 19/09/18
$GPRMC,123356.00,A,4535.4212555,N,12251.1346188,W,000.0,000.0,190918,000.0,W*53,12:33:56 19/09/18
$GPRMC,123502.00,A,4535.2052282,N,12249.8952832,W,000.0,000.0,190918,000.0,W*5E,12:35:02 19/09/18
$GPRMC,123550.00,A,4535.7480118,N,12247.5368809,W,000.0,000.0,190918,000.0,W*5F,12:35:50 19/09/18
$GPRMC,123740.00,A,4533.5490740,N,12244.2250092,W,000.0,000.0,190918,000.0,W*56,12:37:40 19/09/18
$GPRMC,123846.00,A,4534.4048460,N,12246.1257331,W,000.0,000.0,190918,000.0,W*55,12:38:46 19/09/18
$GPRMC,123944.00,A,4534.4783406,N,12246.2043520,W,000.0,000.0,190918,000.0,W*54,12:39:44 19/09/18
$GPRMC,124053.00,A,4534.3070306,N,12243.1051671,W,000.0,000.0,190918,000.0,W*55,12:40:53 19/09/18
$GPRMC,124241.00,A,4533.5170219,N,12242.3279213,W,000.0,000.0,190918,000.0,W*50,12:42:41 19/09/18
$GPRMC,124411.00,A,4534.3083760,N,12245.5415488,W,000.0,000.0,190918,000.0,W*5D,12:44:11 19/09/18
$GPRMC,124514.00,A,4533.5908417,N,12246.5534608,W,000.0,000.0,190918,000.0,W*5A,12:45:14 19/09/18
$GPRMC,124645.00,A,4532.5732749,N,12248.3324401,W,000.0,000.0,190918,000.0,W*57,12:46:45 19/09/18
$GPRMC,124744.00,A,4531.5550489,N,12245.8276978,W,000.0,000.0,190918,000.0,W*5E,12:47:44 19/09/18
$GPRMC,124833.00,A,4531.4405487,N,12243.2268364,W,000.0,000.0,190918,000.0,W*5B,12:48:33 19/09/18
$GPRMC,124916.00,A,4531.4995851,N,12246.0188013,W,000.0,000.0,190918,000.0,W*57,12:49:16 19/09/18
$GPRMC,125007.00,A,4532.4210094,N,12247.3183045,W,000.0,000.0,190918,000.0,W*51,12:50:07 19/09/18
$GPRMC,125110.00,A,4531.4385406,N,12244.2041621,W,000.0,000.0,190918,000.0,W*5E,12:51:10 19/09/18
$GPRMC,125314.00,A,4531.1402178,N,12242.4516806,W,000.0,000.0,190918,000.0,W*55,12:53:14 19/09/18
$GPRMC,125405.00,A,4531.2443192,N,12240.1697624,W,000.0,000.0,190918,000.0,W*53,12:54:05 19/09/18
$GPRMC,125423.00,A,4530.1484639,N,12240.3030387,W,000.0,000.0,190918,000.0,W*5D,12:54:23 19/09/18
$GPRMC,125615.00,A,4529.5681870,N,12237.3348374,W,000.0,000.0,190918,000.0,W*52,12:56:15 19/09/18
$GPRMC,125739.00,A,4530.4771072,N,12240.4984956,W,000.0,000.0,190918,000.0,W*57,12:57:39 19/09/18
$GPRMC,125803.00,A,4529.4087575,N,12240.1312987,W,000.0,000.0,190918,000.0,W*59,12:58:03 19/09/18
$GPRMC,125827.00,A,4528.5798770,N,12242.2364573,W,000.0,000.0,190918,000.0,W*56,12:58:27 19/09/18
$GPRMC,125940.00,A,4529.3857685,N,12245.1918495,W,000.0,000.0,190918,000.0,W*5A,12:59:40 19/09/18
$GPRMC,130117.00,A,4529.2162883,N,12243.1535877,W,000.0,000.0,190918,000.0,W*57,13:01:17 19/09/18
$GPRMC,130253.00,A,4528.5310395,N,12246.5073418,W,000.0,000.0,190918,000.0,W*5A,13:02:53 19/09/18
$GPRMC,130422.00,A,4530.8469947,N,12244.5615652,W,000.0,000.0,190918,000.0,W*5A,13:04:22 19/09/18
$GPRMC,130636.00,A,4533.2076076,N,12256.1678987,W,000.0,000.0,190918,000.0,W*5E,13:06:36 19/09/18
$GPRMC,130824.00,A,4533.2881343,N,12256.1562476,W,000.0,000.0,190918,000.0,W*5D,13:08:24 19/09/18
$GPRMC,130936.00,A,4533.3690720,N,12256.1568862,W,000.0,000.0,190918,000.0,W*52,13:09:36 19/09/18
$GPRMC,131148.00,A,4533.4500097,N,12256.1575247,W,000.0,000.0,190918,000.0,W*55,13:11:48 19/09/18
$GPRMC,131338.00,A,4533.5309474,N,12256.1581633,W,000.0,000.0,190918,000.0,W*5B,13:13:38 19/09/18
$GPRMC,131509.00,A,4534.3393965,N,12256.3264527,W,000.0,000.0,190918,000.0,W*58,13:15:09 19/09/18
$GPRMC,131639.00,A,4535.3613103,N,12259.3520128,W,000.0,000.0,190918,000.0,W*5F,13:16:39 19/09/18
$GPRMC,131843.00,A,4536.2729810,N,12257.3844525,W,000.0,000.0,190918,000.0,W*55,13:18:43 19/09/18
$GPRMC,131941.00,A,4535.8804036,N,12258.4301292,W,000.0,000.0,190918,000.0,W*5A,13:19:41 19/09/18
$GPRMC,132050.00,A,4535.1318817,N,12257.5089837,W,000.0,000.0,190918,000.0,W*5C,13:20:50 19/09/18
$GPRMC,132134.00,A,4535.3113785,N,12258.2211965,W,000.0,000.0,190918,000.0,W*5D,13:21:34 19/09/18
$GPRMC,132218.00,A,4534.2322996,N,12259.4996938,W,000.0,000.0,190918,000.0,W*57,13:22:18 19/09/18
$GPRMC,132351.00,A,4535.3930858,N,12301.5456782,W,000.0,000.0,190918,000.0,W*52,13:23:51 19/09/18
$GPRMC,132516.00,A,4534.4679951,N,12301.2251811,W,000.0,000.0,190918,000.0,W*58,13:25:16 19/09/18
$GPRMC,132526.00,A,4534.4769494,N,12300.4260493,W,000.0,000.0,190918,000.0,W*5C,13:25:26 19/09/18
$GPRMC,132652.00,A,4534.1409290,N,12302.4693175,W,000.0,000.0,190918,000.0,W*59,13:26:52 19/09/18
$GPRMC,132754.00,A,4534.5750965,N,12300.2899940,W,000.0,000.0,190918,000.0,W*5A,13:27:54 19/09/18
$GPRMC,132837.00,A,4534.5542052,N,12257.3128954,W,000.0,000.0,190918,000.0,W*58,13:28:37 19/09/18
$GPRMC,133027.00,A,4536.1591040,N,12258.3583568,W,000.0,000.0,190918,000.0,W*52,13:30:27 19/09/18
$GPRMC,133112.00,A,4535.6623176,N,12301.2258002,W,000.0,000.0,190918,000.0,W*5B,13:31:12 19/09/18
$GPRMC,133224.00,A,4535.1655172,N,12259.5624018,W,000.0,000.0,190918,000.0,W*50,13:32:24 19/09/18
$GPRMC,133421.00,A,4535.5155901,N,12258.2628095,W,000.0,000.0,190918,000.0,W*53,13:34:21 19/09/18
$GPRMC,133525.00,A,4534.5412786,N,12301.6123699,W,000.0,000.0,190918,000.0,W*5F,13:35:25 19/09/18
$GPRMC,133618.00,A,4535.5813172,N,12259.5659768,W,000.0,000.0,190918,000.0,W*59,13:36:18 19/09/18
$GPRMC,133741.00,A,4534.4627210,N,12300.4150639,W,000.0,000.0,190918,000.0,W*5D,13:37:41 19/09/18
$GPRMC,133852.00,A,4535.5861339,N,12302.5577592,W,000.0,000.0,190918,000.0,W*56,13:38:52 19/09/18
$GPRMC,134009.00,A,4535.2436750,N,12304.3582897,W,000.0,000.0,190918,000.0,W*57,13:40:09 19/09/18
$GPRMC,134050.00,A,4535.1778772,N,12304.4049068,W,000.0,000.0,190918,000.0,W*5C,13:40:50 19/09/18
$GPRMC,134221.00,A,4534.3205877,N,12302.5788677,W,000.0,000.0,190918,000.0,W*5B,13:42:21 19/09/18
$GPRMC,134315.00,A,4535.2176960,N,12306.2260447,W,000.0,000.0,190918,000.0,W*5C,13:43:15 19/09/18
$GPRMC,134416.00,A,4535.1334493,N,12308.4839717,W,000.0,000.0,190918,000.0,W*56,13:44:16 19/09/18
$GPRMC,134713.00,A,4534.9282289,N,12256.1594404,W,000.0,000.0,190918,000.0,W*5C,13:47:13 19/09/18
$GPRMC,135145.00,A,4535.1171507,N,12257.3862936,W,000.0,000.0,190918,000.0,W*54,13:51:45 19/09/18
$GPRMC,135312.00,A,4536.4964789,N,12258.6116436,W,000.0,000.0,190918,000.0,W*57,13:53:12 19/09/18
$GPRMC,135432.00,A,4535.4433545,N,12255.2309427,W,000.0,000.0,190918,000.0,W*59,13:54:32 19/09/18
$GPRMC,135522.00,A,4535.4728564,N,12258.4545053,W,000.0,000.0,190918,000.0,W*51,13:55:22 19/09/18
$GPRMC,135541.00,A,4534.3133332,N,12255.7888680,W,000.0,000.0,190918,000.0,W*51,13:55:41 19/09/18
$GPRMC,135708.00,A,4533.3316756,N,12252.5790431,W,000.0,000.0,190918,000.0,W*51,13:57:08 19/09/18
$GPRMC,135851.00,A,4534.3558863,N,12251.4394359,W,000.0,000.0,190918,000.0,W*5B,13:58:51 19/09/18
$GPRMC,140057.00,A,4533.4839854,N,12254.4356992,W,000.0,000.0,190918,000.0,W*5F,14:00:57 19/09/18
$GPRMC,140243.00,A,4532.5368047,N,12251.3187507,W,000.0,000.0,190918,000.0,W*51,14:02:43 19/09/18
$GPRMC,140322.00,A,4532.3847350,N,12248.4843027,W,000.0,000.0,190918,000.0,W*5B,14:03:22 19/09/18
$GPRMC,140548.00,A,4534.2546983,N,12256.1607175,W,000.0,000.0,190918,000.0,W*5C,14:05:48 19/09/18
$GPRMC,140826.00,A,4534.3356360,N,12256.1613560,W,000.0,000.0,190918,000.0,W*5D,14:08:26 19/09/18
$GPRMC,140942.00,A,4534.4165737,N,12256.1619945,W,000.0,000.0,190918,000.0,W*5C,14:09:42 19/09/18
$GPRMC,141259.00,A,4534.4975114,N,12256.1626331,W,000.0,000.0,190918,000.0,W*57,14:12:59 19/09/18
$GPRMC,141438.00,A,4534.5784491,N,12256.1632716,W,000.0,000.0,190918,000.0,W*5B,14:14:38 19/09/18
$GPRMC,141550.00,A,4535.5938686,N,12256.1639102,W,000.0,000.0,190918,000.0,W*50,14:15:50 19/09/18
$GPRMC,141632.00,A,4535.1403245,N,12256.1645487,W,000.0,000.0,190918,000.0,W*5E,14:16:32 19/09/18
$GPRMC,141655.00,A,4535.2212622,N,12256.1651873,W,000.0,000.0,190918,000.0,W*5D,14:16:55 19/09/18
$GPRMC,141844.00,A,4535.3021999,N,12256.1658258,W,000.0,000.0,190918,000.0,W*55,14:18:44 19/09/18
$GPRMC,142017.00,A,4535.3831377,N,12256.1664644,W,000.0,000.0,190918,000.0,W*5D,14:20:17 19/09/18
$GPRMC,142202.00,A,4536.2896544,N,12259.5359680,W,000.0,000.0,190918,000.0,W*5A,14:22:02 19/09/18
$GPRMC,142326.00,A,4537.3774014,N,12257.1913730,W,000.0,000.0,190918,000.0,W*5A,14:23:26 19/09/18
$GPRMC,142531.00,A,4538.5533093,N,12300.3064494,W,000.0,000.0,190918,000.0,W*58,14:25:31 19/09/18
$GPRMC,142653.00,A,4536.4814170,N,12256.5374416,W,000.0,000.0,190918,000.0,W*58,14:26:53 19/09/18
$GPRMC,142744.00,A,4536.4032060,N,12257.0959275,W,000.0,000.0,190918,000.0,W*51,14:27:44 19/09/18
$GPRMC,142811.00,A,4537.6221709,N,12258.1483528,W,000.0,000.0,190918,000.0,W*5E,14:28:11 19/09/18
$GPRMC,142917.00,A,4537.4636666,N,12255.4514792,W,000.0,000.0,190918,000.0,W*55,14:29:17 19/09/18
$GPRMC,142922.00,A,4537.5643442,N,12258.4866634,W,000.0,000.0,190918,000.0,W*5C,14:29:22 19/09/18
$GPRMC,143027.00,A,4536.5917572,N,12258.1089280,W,000.0,000.0,190918,000.0,W*5B,14:30:27 19/09/18
$GPRMC,143121.00,A,4537.9272606,N,12256.1316082,W,000.0,000.0,190918,000.0,W*52,14:31:21 19/09/18
$GPRMC,143234.00,A,4538.2486295,N,12258.0706813,W,000.0,000.0,190918,000.0,W*58,14:32:34 19/09/18
$GPRMC,143257.00,A,4539.3919461,N,12257.1249986,W,000.0,000.0,190918,000.0,W*56,14:32:57 19/09/18
$GPRMC,143415.00,A,4540.1966182,N,12257.3847487,W,000.0,000.0,190918,000.0,W*50,14:34:15 19/09/18
$GPRMC,143511.00,A,4540.1506161,N,12300.4322429,W,000.0,000.0,190918,000.0,W*5A,14:35:11 19/09/18
$GPRMC,143614.00,A,4539.1233498,N,12301.1313506,W,000.0,000.0,190918,000.0,W*5A,14:36:14 19/09/18
$GPRMC,143721.00,A,4540.3013552,N,12303.3380771,W,000.0,000.0,190918,000.0,W*5E,14:37:21 19/09/18
$GPRMC,143823.00,A,4539.1210919,N,12300.1551791,W,000.0,000.0,190918,000.0,W*58,14:38:23 19/09/18
$GPRMC,143901.00,A,4539.3524377,N,12302.2148663,W,000.0,000.0,190918,000.0,W*58,14:39:01 19/09/18
$GPRMC,144014.00,A,4540.4171924,N,12302.1422302,W,000.0,000.0,190918,000.0,W*5B,14:40:14 19/09/18
$GPRMC,144136.00,A,4540.3075964,N,12304.5959203,W,000.0,000.0,190918,000.0,W*5F,14:41:36 19/09/18
$GPRMC,144237.00,A,4540.4761539,N,12305.8817598,W,000.0,000.0,190918,000.0,W*5E,14:42:37 19/09/18
$GPRMC,144316.00,A,4539.4482443,N,12305.2687727,W,000.0,000.0,190918,000.0,W*5B,14:43:16 19/09/18
$GPRMC,144411.00,A,4539.4302022,N,12301.2481533,W,000.0,000.0,190918,000.0,W*50,14:44:11 19/09/18
$GPRMC,144506.00,A,4539.6046552,N,12259.2200594,W,000.0,000.0,190918,000.0,W*5A,14:45:06 19/09/18
$GPRMC,144609.00,A,4539.6795762,N,12258.4008112,W,000.0,000.0,190918,000.0,W*59,14:46:09 19/09/18
$GPRMC,144724.00,A,4540.9482700,N,12258.4840887,W,000.0,000.0,190918,000.0,W*56,14:47:24 19/09/18
$GPRMC,144919.00,A,4541.1146940,N,12301.4881805,W,000.0,000.0,190918,000.0,W*52,14:49:19 19/09/18
$GPRMC,144954.00,A,4542.1502045,N,12303.4729461,W,000.0,000.0,190918,000.0,W*51,14:49:54 19/09/18
$GPRMC,145043.00,A,4541.3735532,N,12301.3018184,W,000.0,000.0,190918,000.0,W*53,14:50:43 19/09/18
$GPRMC,145137.00,A,4542.1975138,N,12304.4590210,W,000.0,000.0,190918,000.0,W*5D,14:51:37 19/09/18
$GPRMC,145343.00,A,4541.5290076,N,12303.4594502,W,000.0,000.0,190918,000.0,W*57,14:53:43 19/09/18
$GPRMC,145448.00,A,4541.1989591,N,12305.2977258,W,000.0,000.0,190918,000.0,W*59,14:54:48 19/09/18
$GPRMC,145545.00,A,4542.4053794,N,12309.1033044,W,000.0,000.0,190918,000.0,W*53,14:55:45 19/09/18
$GPRMC,145701.00,A,4543.2727488,N,12312.1759845,W,000.0,000.0,190918,000.0,W*54,14:57:01 19/09/18
$GPRMC,145731.00,A,4543.1976700,N,12314.4817154,W,000.0,000.0,190918,000.0,W*52,14:57:31 19/09/18
$GPRMC,145858.00,A,4543.4615216,N,12317.1606137,W,000.0,000.0,190918,000.0,W*52,14:58:58 19/09/18
$GPRMC,145947.00,A,4544.1023190,N,12316.2747136,W,000.0,000.0,190918,000.0,W*56,14:59:47 19/09/18
$GPRMC,150055.00,A,4544.9219996,N,12314.3921233,W,000.0,000.0,190918,000.0,W*5E,15:00:55 19/09/18
$GPRMC,150119.00,A,4545.2151159,N,12312.5700207,W,000.0,000.0,190918,000.0,W*53,15:01:19 19/09/18
$GPRMC,150209.00,A,4545.4550146,N,12315.4007020,W,000.0,000.0,190918,000.0,W*5D,15:02:09 19/09/18
$GPRMC,150324.00,A,4545.8431048,N,12316.3556122,W,000.0,000.0,190918,000.0,W*50,15:03:24 19/09/18
$GPRMC,150414.00,A,4546.2145418,N,12314.5347367,W,000.0,000.0,190918,000.0,W*5B,15:04:14 19/09/18
$GPRMC,150642.00,A,4547.0196763,N,12315.1443155,W,000.0,000.0,190918,000.0,W*5D,15:06:42 19/09/18
$GPRMC,150814.00,A,4535.5450131,N,12256.1677414,W,000.0,000.0,190918,000.0,W*5D,15:08:14 19/09/18
$GPRMC,150922.00,A,4536.2595084,N,12256.1683800,W,000.0,000.0,190918,000.0,W*58,15:09:22 19/09/18
$GPRMC,151150.00,A,4536.1068885,N,12256.1690185,W,000.0,000.0,190918,000.0,W*5F,15:11:50 19/09/18
$GPRMC,151400.00,A,4536.1878262,N,12256.1696571,W,000.0,000.0,190918,000.0,W*5C,15:14:00 19/09/18
$GPRMC,151640.00,A,4537.2230248,N,12257.1256557,W,000.0,000.0,190918,000.0,W*5B,15:16:40 19/09/18
$GPRMC,151748.00,A,4536.1133501,N,12253.4627635,W,000.0,000.0,190918,000.0,W*5E,15:17:48 19/09/18
$GPRMC,151946.00,A,4537.4560404,N,12257.0374929,W,000.0,000.0,190918,000.0,W*5D,15:19:46 19/09/18
$GPRMC,152116.00,A,4538.2817534,N,12258.5269773,W,000.0,000.0,190918,000.0,W*53,15:21:16 19/09/18
$GPRMC,152232.00,A,4538.5414996,N,12300.2753143,W,000.0,000.0,190918,000.0,W*58,15:22:32 19/09/18
$GPRMC,152427.00,A,4537.1903928,N,12300.1509290,W,000.0,000.0,190918,000.0,W*5C,15:24:27 19/09/18
$GPRMC,152618.00,A,4536.3497016,N,12256.1709342,W,000.0,000.0,190918,000.0,W*5B,15:26:18 19/09/18
$GPRMC,152852.00,A,4536.4295417,N,12256.1519253,W,000.0,000.0,190918,000.0,W*5F,15:28:52 19/09/18
$GPRMC,153022.00,A,4536.5093817,N,12256.1329165,W,000.0,000.0,190918,000.0,W*5B,15:30:22 19/09/18
$GPRMC,153129.00,A,4536.5892217,N,12256.1139076,W,000.0,000.0,190918,000.0,W*52,15:31:29 19/09/18
$GPRMC,153315.00,A,4537.6906176,N,12256.9489879,W,000.0,000.0,190918,000.0,W*54,15:33:15 19/09/18
$GPRMC,153425.00,A,4537.1489017,N,12256.7588993,W,000.0,000.0,190918,000.0,W*50,15:34:25 19/09/18
$GPRMC,153629.00,A,4537.2287418,N,12256.5688108,W,000.0,000.0,190918,000.0,W*55,15:36:29 19/09/18
$GPRMC,153745.00,A,4537.3085818,N,12256.3787222,W,000.0,000.0,190918,000.0,W*50,15:37:45 19/09/18
$GPRMC,153906.00,A,4537.3884218,N,12256.1886337,W,000.0,000.0,190918,000.0,W*53,15:39:06 19/09/18
$GPRMC,154148.00,A,4537.5810837,N,12256.5262913,W,000.0,000.0,190918,000.0,W*52,15:41:48 19/09/18
$GPRMC,154222.00,A,4538.0496591,N,12259.1907760,W,000.0,000.0,190918,000.0,W*5D,15:42:22 19/09/18
$GPRMC,154411.00,A,4538.3330942,N,12301.5555955,W,000.0,000.0,190918,000.0,W*5A,15:44:11 19/09/18
$GPRMC,154550.00,A,4537.2702381,N,12304.0065738,W,000.0,000.0,190918,000.0,W*53,15:45:50 19/09/18
$GPRMC,154649.00,A,4538.3261525,N,12304.4970099,W,000.0,000.0,190918,000.0,W*5B,15:46:49 19/09/18
$GPRMC,154834.00,A,4539.2385890,N,12303.5962833,W,000.0,000.0,190918,000.0,W*5A,15:48:34 19/09/18
$GPRMC,154842.00,A,4540.2657311,N,12303.5053505,W,000.0,000.0,190918,000.0,W*5E,15:48:42 19/09/18
$GPRMC,155031.00,A,4539.3226164,N,12304.1791142,W,000.0,000.0,190918,000.0,W*53,15:50:31 19/09/18
$GPRMC,155116.00,A,4538.4133883,N,12306.5467409,W,000.0,000.0,190918,000.0,W*50,15:51:16 19/09/18
$GPRMC,155245.00,A,4539.1022191,N,12308.1300957,W,000.0,000.0,190918,000.0,W*50,15:52:45 19/09/18
$GPRMC,155411.00,A,4539.2627264,N,12306.1279986,W,000.0,000.0,190918,000.0,W*53,15:54:11 19/09/18
$GPRMC,155525.00,A,4539.2237138,N,12304.2506931,W,000.0,000.0,190918,000.0,W*58,15:55:25 19/09/18
$GPRMC,155612.00,A,4539.3478301,N,12304.3414094,W,000.0,000.0,190918,000.0,W*5E,15:56:12 19/09/18
$GPRMC,155737.00,A,4540.3118641,N,12302.1770284,W,000.0,000.0,190918,000.0,W*52,15:57:37 19/09/18
$GPRMC,155854.00,A,4540.1836891,N,12301.6033143,W,000.0,000.0,190918,000.0,W*50,15:58:54 19/09/18
$GPRMC,160006.00,A,4541.2278755,N,12257.3149470,W,000.0,000.0,190918,000.0,W*52,16:00:06 19/09/18
$GPRMC,160104.00,A,4540.4276406,N,12259.3432034,W,000.0,000.0,190918,000.0,W*5E,16:01:04 19/09/18
$GPRMC,160248.00,A,4541.2108413,N,12302.5808646,W,000.0,000.0,190918,000.0,W*53,16:02:48 19/09/18
$GPRMC,160449.00,A,4537.5481018,N,12255.5808456,W,000.0,000.0,190918,000.0,W*59,16:04:49 19/09/18
$GPRMC,160622.00,A,4538.2794190,N,12255.5618368,W,000.0,000.0,190918,000.0,W*5D,16:06:22 19/09/18
$GPRMC,160735.00,A,4538.1077819,N,12255.5428279,W,000.0,000.0,190918,000.0,W*5B,16:07:35 19/09/18
$GPRMC,161043.00,A,4538.1876219,N,12255.5238190,W,000.0,000.0,190918,000.0,W*5C,16:10:43 19/09/18
$GPRMC,161242.00,A,4538.2674619,N,12255.5048102,W,000.0,000.0,190918,000.0,W*5A,16:12:42 19/09/18
$GPRMC,161609.00,A,4537.4786902,N,12258.1147404,W,000.0,000.0,190918,000.0,W*55,16:16:09 19/09/18
$GPRMC,161714.00,A,4537.3901300,N,12259.7577799,W,000.0,000.0,190918,000.0,W*51,16:17:14 19/09/18
$GPRMC,161801.00,A,4537.3727661,N,12257.9494185,W,000.0,000.0,190918,000.0,W*55,16:18:01 19/09/18
$GPRMC,161845.00,A,4538.3438350,N,12257.2418431,W,000.0,000.0,190918,000.0,W*55,16:18:45 19/09/18
$GPRMC,161934.00,A,4538.3701122,N,12256.3996411,W,000.0,000.0,190918,000.0,W*55,16:19:34 19/09/18
$GPRMC,162037.00,A,4538.5520389,N,12259.1631224,W,000.0,000.0,190918,000.0,W*57,16:20:37 19/09/18
$GPRMC,162119.00,A,4537.5240198,N,12255.5405118,W,000.0,000.0,190918,000.0,W*57,16:21:19 19/09/18
$GPRMC,162227.00,A,4537.4450287,N,12258.8886055,W,000.0,000.0,190918,000.0,W*5D,16:22:27 19/09/18
$GPRMC,162315.00,A,4538.4977296,N,12254.5456049,W,000.0,000.0,190918,000.0,W*57,16:23:15 19/09/18
$GPRMC,162439.00,A,4538.1370814,N,12254.5158676,W,000.0,000.0,190918,000.0,W*57,16:24:39 19/09/18
$GPRMC,162519.00,A,4538.1981638,N,12251.2907601,W,000.0,000.0,190918,000.0,W*50,16:25:19 19/09/18
$GPRMC,162754.00,A,4538.4271419,N,12255.4667925,W,000.0,000.0,190918,000.0,W*59,16:27:54 19/09/18
$GPRMC,162955.00,A,4538.5284913,N,12257.3262747,W,000.0,000.0,190918,000.0,W*54,16:29:55 19/09/18
$GPRMC,163115.00,A,4538.5868220,N,12255.4287748,W,000.0,000.0,190918,000.0,W*5B,16:31:15 19/09/18
$GPRMC,163241.00,A,4539.6666205,N,12255.4097659,W,000.0,000.0,190918,000.0,W*5E,16:32:41 19/09/18
$GPRMC,163443.00,A,4539.1394367,N,12255.4604588,W,000.0,000.0,190918,000.0,W*53,16:34:43 19/09/18
$GPRMC,163617.00,A,4539.2122114,N,12255.5111516,W,000.0,000.0,190918,000.0,W*5F,16:36:17 19/09/18
$GPRMC,163847.00,A,4539.2849861,N,12255.5618445,W,000.0,000.0,190918,000.0,W*52,16:38:47 19/09/18
$GPRMC,164022.00,A,4539.3577607,N,12256.1253743,W,000.0,000.0,190918,000.0,W*58,16:40:22 19/09/18
$GPRMC,164259.00,A,4538.3701706,N,12257.5166114,W,000.0,000.0,190918,000.0,W*50,16:42:59 19/09/18
$GPRMC,164353.00,A,4538.3556851,N,12255.2356460,W,000.0,000.0,190918,000.0,W*54,16:43:53 19/09/18
$GPRMC,164524.00,A,4539.1290516,N,12253.4686701,W,000.0,000.0,190918,000.0,W*5E,16:45:24 19/09/18
$GPRMC,164631.00,A,4538.5297705,N,12254.5971797,W,000.0,000.0,190918,000.0,W*55,16:46:31 19/09/18
$GPRMC,164800.00,A,4538.3269182,N,12254.5662111,W,000.0,000.0,190918,000.0,W*52,16:48:00 19/09/18
$GPRMC,164944.00,A,4537.5148272,N,12251.4737858,W,000.0,000.0,190918,000.0,W*57,16:49:44 19/09/18
$GPRMC,165113.00,A,4537.4096206,N,12251.1307104,W,000.0,000.0,190918,000.0,W*5E,16:51:13 19/09/18
$GPRMC,165242.00,A,4538.4877657,N,12248.1676369,W,000.0,000.0,190918,000.0,W*53,16:52:42 19/09/18
$GPRMC,165353.00,A,4539.5292408,N,12250.2680057,W,000.0,000.0,190918,000.0,W*56,16:53:53 19/09/18
$GPRMC,165436.00,A,4541.0480551,N,12248.3940262,W,000.0,000.0,190918,000.0,W*5F,16:54:36 19/09/18
$GPRMC,165520.00,A,4541.3460327,N,12245.4388919,W,000.0,000.0,190918,000.0,W*50,16:55:20 19/09/18
$GPRMC,165719.00,A,4540.5977562,N,12248.1540205,W,000.0,000.0,190918,000.0,W*5F,16:57:19 19/09/18
$GPRMC,165856.00,A,4541.3006762,N,12245.4747152,W,000.0,000.0,190918,000.0,W*5D,16:58:56 19/09/18
$GPRMC,170017.00,A,4540.2571903,N,12245.1605887,W,000.0,000.0,190918,000.0,W*5B,17:00:17 19/09/18
$GPRMC,170108.00,A,4539.3777636,N,12248.2428725,W,000.0,000.0,190918,000.0,W*52,17:01:08 19/09/18
$GPRMC,170203.00,A,4538.2389829,N,12250.4216386,W,000.0,000.0,190918,000.0,W*56,17:02:03 19/09/18
$GPRMC,170321.00,A,4539.5033101,N,12256.1139231,W,000.0,000.0,190918,000.0,W*50,17:03:21 19/09/18
$GPRMC,170648.00,A,4540.5883662,N,12257.1278942,W,000.0,000.0,190918,000.0,W*5D,17:06:48 19/09/18
$GPRMC,170704.00,A,4539.4454650,N,12258.3557035,W,000.0,000.0,190918,000.0,W*52,17:07:04 19/09/18
$GPRMC,170801.00,A,4540.5073383,N,12255.8566320,W,000.0,000.0,190918,000.0,W*5E,17:08:01 19/09/18
$GPRMC,170849.00,A,4541.1290543,N,12254.2328842,W,000.0,000.0,190918,000.0,W*5A,17:08:49 19/09/18
$GPRMC,170918.00,A,4541.1205131,N,12256.4803448,W,000.0,000.0,190918,000.0,W*52,17:09:18 19/09/18
$GPRMC,170948.00,A,4542.3283467,N,12256.3285694,W,000.0,000.0,190918,000.0,W*5E,17:09:48 19/09/18
$GPRMC,171027.00,A,4541.5430430,N,12258.6041002,W,000.0,000.0,190918,000.0,W*5E,17:10:27 19/09/18
$GPRMC,171154.00,A,4540.4201147,N,12256.1740160,W,000.0,000.0,190918,000.0,W*50,17:11:54 19/09/18
$GPRMC,171334.00,A,4540.5362249,N,12257.5845614,W,000.0,000.0,190918,000.0,W*57,17:13:34 19/09/18
$GPRMC,171436.00,A,4539.5822918,N,12301.3593147,W,000.0,000.0,190918,000.0,W*5F,17:14:36 19/09/18
$GPRMC,171637.00,A,4538.4086938,N,12303.1063761,W,000.0,000.0,190918,000.0,W*50,17:16:37 19/09/18
$GPRMC,171818.00,A,4538.1779695,N,12304.2005468,W,000.0,000.0,190918,000.0,W*57,17:18:18 19/09/18
$GPRMC,171935.00,A,4537.4264398,N,12307.1838827,W,000.0,000.0,190918,000.0,W*53,17:19:35 19/09/18
$GPRMC,171953.00,A,4538.2104539,N,12308.7725545,W,000.0,000.0,190918,000.0,W*51,17:19:53 19/09/18
$GPRMC,172050.00,A,4538.6817012,N,12304.4440504,W,000.0,000.0,190918,000.0,W*51,17:20:50 19/09/18
$GPRMC,172215.00,A,4538.4157542,N,12301.1971037,W,000.0,000.0,190918,000.0,W*57,17:22:15 19/09/18
$GPRMC,172241.00,A,4538.3347070,N,12300.5002678,W,000.0,000.0,190918,000.0,W*53,17:22:41 19/09/18
$GPRMC,172415.00,A,4538.8715898,N,12301.1442549,W,000.0,000.0,190918,000.0,W*56,17:24:15 19/09/18
$GPRMC,172651.00,A,4540.4885952,N,12256.2153089,W,000.0,000.0,190918,000.0,W*5A,17:26:51 19/09/18
$GPRMC,172834.00,A,4540.1216342,N,12256.2660017,W,000.0,000.0,190918,000.0,W*59,17:28:34 19/09/18
$GPRMC,173047.00,A,4540.1944088,N,12256.3166946,W,000.0,000.0,190918,000.0,W*50,17:30:47 19/09/18
$GPRMC,173224.00,A,4540.2671835,N,12256.3673875,W,000.0,000.0,190918,000.0,W*51,17:32:24 19/09/18
$GPRMC,173501.00,A,4540.3399582,N,12256.4180803,W,000.0,000.0,190918,000.0,W*5F,17:35:01 19/09/18
$GPRMC,173610.00,A,4540.4127329,N,12256.4687732,W,000.0,000.0,190918,000.0,W*56,17:36:10 19/09/18
$GPRMC,173753.00,A,4540.4855076,N,12256.5194661,W,000.0,000.0,190918,000.0,W*56,17:37:53 19/09/18
$GPRMC,173900.00,A,4540.5582823,N,12256.5701589,W,000.0,000.0,190918,000.0,W*5F,17:39:00 19/09/18
$GPRMC,174105.00,A,4540.5576149,N,12257.8600708,W,000.0,000.0,190918,000.0,W*5C,17:41:05 19/09/18
$GPRMC,174505.00,A,4540.6492731,N,12257.3776941,W,000.0,000.0,190918,000.0,W*51,17:45:05 19/09/18
$GPRMC,174613.00,A,4541.2284011,N,12255.4180213,W,000.0,000.0,190918,000.0,W*52,17:46:13 19/09/18
$GPRMC,174758.00,A,4541.9694130,N,12258.1333717,W,000.0,000.0,190918,000.0,W*53,17:47:58 19/09/18
$GPRMC,174828.00,A,4540.6535594,N,12259.5981749,W,000.0,000.0,190918,000.0,W*5A,17:48:28 19/09/18
$GPRMC,174931.00,A,4539.4608655,N,12300.4682523,W,000.0,000.0,190918,000.0,W*52,17:49:31 19/09/18
$GPRMC,175024.00,A,4538.5939257,N,12258.5848060,W,000.0,000.0,190918,000.0,W*52,17:50:24 19/09/18
$GPRMC,175101.00,A,4538.5098618,N,12256.1071273,W,000.0,000.0,190918,000.0,W*51,17:51:01 19/09/18
$GPRMC,175135.00,A,4537.3883287,N,12255.3951242,W,000.0,000.0,190918,000.0,W*57,17:51:35 19/09/18
$GPRMC,175326.00,A,4538.4821380,N,12256.2023426,W,000.0,000.0,190918,000.0,W*5B,17:53:26 19/09/18
$GPRMC,175440.00,A,4537.5331522,N,12256.5723376,W,000.0,000.0,190918,000.0,W*54,17:54:40 19/09/18
$GPRMC,175600.00,A,4538.5821750,N,12254.1729286,W,000.0,000.0,190918,000.0,W*52,17:56:00 19/09/18
$GPRMC,175758.00,A,4539.5837054,N,12257.4311692,W,000.0,000.0,190918,000.0,W*53,17:57:58 19/09/18
$GPRMC,175911.00,A,4541.7574847,N,12300.4624173,W,000.0,000.0,190918,000.0,W*55,17:59:11 19/09/18
$GPRMC,180107.00,A,4542.1225539,N,12301.3159340,W,000.0,000.0,190918,000.0,W*5B,18:01:07 19/09/18
$GPRMC,180211.00,A,4541.1734157,N,12303.1585232,W,000.0,000.0,190918,000.0,W*54,18:02:11 19/09/18
$GPRMC,180319.00,A,4541.4137772,N,12303.2414444,W,000.0,000.0,190918,000.0,W*51,18:03:19 19/09/18
$GPRMC,180426.00,A,4542.1835675,N,12300.2240142,W,000.0,000.0,190918,000.0,W*56,18:04:26 19/09/18
$GPRMC,180643.00,A,4541.1473925,N,12257.6010973,W,000.0,000.0,190918,000.0,W*5A,18:06:43 19/09/18
$GPRMC,180833.00,A,4540.4772246,N,12254.3557349,W,000.0,000.0,190918,000.0,W*58,18:08:33 19/09/18
$GPRMC,180909.00,A,4540.2172421,N,12257.3802186,W,000.0,000.0,190918,000.0,W*58,18:09:09 19/09/18
$GPRMC,181005.00,A,4539.1742159,N,12258.3203012,W,000.0,000.0,190918,000.0,W*56,18:10:05 19/09/18
$GPRMC,181045.00,A,4538.3740901,N,12259.5211142,W,000.0,000.0,190918,000.0,W*56,18:10:45 19/09/18
$GPRMC,181112.00,A,4537.5009544,N,12300.2974973,W,000.0,000.0,190918,000.0,W*53,18:11:12 19/09/18
$GPRMC,181155.00,A,4538.4994137,N,12302.2429019,W,000.0,000.0,190918,000.0,W*51,18:11:55 19/09/18
$GPRMC,181306.00,A,4539.4882442,N,12303.3302757,W,000.0,000.0,190918,000.0,W*56,18:13:06 19/09/18
$GPRMC,181448.00,A,4538.5376556,N,12300.3796988,W,000.0,000.0,190918,000.0,W*59,18:14:48 19/09/18
$GPRMC,181616.00,A,4539.2807157,N,12302.3197169,W,000.0,000.0,190918,000.0,W*5C,18:16:16 19/09/18
$GPRMC,181747.00,A,4539.4508014,N,12301.1850470,W,000.0,000.0,190918,000.0,W*55,18:17:47 19/09/18
$GPRMC,181846.00,A,4538.3766352,N,12301.3993433,W,000.0,000.0,190918,000.0,W*5D,18:18:46 19/09/18
$GPRMC,181931.00,A,4537.2949500,N,12258.5927032,W,000.0,000.0,190918,000.0,W*51,18:19:31 19/09/18
$GPRMC,182026.00,A,4537.1191074,N,12259.1307749,W,000.0,000.0,190918,000.0,W*53,18:20:26 19/09/18
$GPRMC,182201.00,A,4537.4823912,N,12300.2619138,W,000.0,000.0,190918,000.0,W*5C,18:22:01 19/09/18
$GPRMC,182222.00,A,4538.2325005,N,12303.1628463,W,000.0,000.0,190918,000.0,W*5F,18:22:22 19/09/18
$GPRMC,182313.00,A,4538.4944119,N,12306.1546718,W,000.0,000.0,190918,000.0,W*5A,18:23:13 19/09/18
$GPRMC,182431.00,A,4539.2592007,N,12303.1187641,W,000.0,000.0,190918,000.0,W*52,18:24:31 19/09/18
$GPRMC,182507.00,A,4538.3013215,N,12301.2332917,W,000.0,000.0,190918,000.0,W*5A,18:25:07 19/09/18
$GPRMC,182543.00,A,4537.3525985,N,12258.4084284,W,000.0,000.0,190918,000.0,W*53,18:25:43 19/09/18
$GPRMC,182659.00,A,4538.4165414,N,12256.5113177,W,000.0,000.0,190918,000.0,W*59,18:26:59 19/09/18
$GPRMC,182822.00,A,4539.3211911,N,12258.1322978,W,000.0,000.0,190918,000.0,W*58,18:28:22 19/09/18
$GPRMC,182912.00,A,4539.5335818,N,12257.1054969,W,000.0,000.0,190918,000.0,W*5E,18:29:12 19/09/18
$GPRMC,183157.00,A,4540.5562801,N,12257.3177032,W,000.0,000.0,190918,000.0,W*51,18:31:57 19/09/18
$GPRMC,183341.00,A,4540.5556127,N,12257.4335514,W,000.0,000.0,190918,000.0,W*5C,18:33:41 19/09/18
$GPRMC,183533.00,A,4540.5549453,N,12257.5493995,W,000.0,000.0,190918,000.0,W*58,18:35:33 19/09/18
$GPRMC,183733.00,A,4540.5542779,N,12258.6524761,W,000.0,000.0,190918,000.0,W*5E,18:37:33 19/09/18
$GPRMC,183857.00,A,4540.5536105,N,12258.1810957,W,000.0,000.0,190918,000.0,W*5B,18:38:57 19/09/18
$GPRMC,184048.00,A,4540.5529431,N,12258.2969438,W,000.0,000.0,190918,000.0,W*5E,18:40:48 19/09/18
$GPRMC,184204.00,A,4540.5522757,N,12258.4127919,W,000.0,000.0,190918,000.0,W*56,18:42:04 19/09/18
$GPRMC,184256.00,A,4540.5516083,N,12258.5286400,W,000.0,000.0,190918,000.0,W*54,18:42:56 19/09/18
$GPRMC,184341.00,A,4540.5509409,N,12259.4448814,W,000.0,000.0,190918,000.0,W*56,18:43:41 19/09/18
$GPRMC,184739.00,A,4540.2895029,N,12301.6971021,W,000.0,000.0,190918,000.0,W*53,18:47:39 19/09/18
$GPRMC,184854.00,A,4541.4562842,N,12300.1054315,W,000.0,000.0,190918,000.0,W*5C,18:48:54 19/09/18
$GPRMC,185018.00,A,4541.3940962,N,12303.3379285,W,000.0,000.0,190918,000.0,W*50,18:50:18 19/09/18
$GPRMC,185037.00,A,4542.3226940,N,12303.4997657,W,000.0,000.0,190918,000.0,W*53,18:50:37 19/09/18
$GPRMC,185127.00,A,4541.3353809,N,12304.1984324,W,000.0,000.0,190918,000.0,W*5E,18:51:27 19/09/18
$GPRMC,185250.00,A,4540.2206850,N,12301.9956912,W,000.0,000.0,190918,000.0,W*5D,18:52:50 19/09/18
$GPRMC,185348.00,A,4541.1255451,N,12300.5593810,W,000.0,000.0,190918,000.0,W*57,18:53:48 19/09/18
$GPRMC,185431.00,A,4541.3839099,N,12300.4847243,W,000.0,000.0,190918,000.0,W*55,18:54:31 19/09/18
$GPRMC,185544.00,A,4540.5222752,N,12258.4380229,W,000.0,000.0,190918,000.0,W*51,18:55:44 19/09/18
$GPRMC,185606.00,A,4541.1885075,N,12255.3759631,W,000.0,000.0,190918,000.0,W*53,18:56:06 19/09/18
$GPRMC,185638.00,A,4541.5641491,N,12258.3701313,W,000.0,000.0,190918,000.0,W*57,18:56:38 19/09/18
$GPRMC,185743.00,A,4541.1287320,N,12258.2595204,W,000.0,000.0,190918,000.0,W*54,18:57:43 19/09/18
$GPRMC,185856.00,A,4540.2103441,N,12258.1574731,W,000.0,000.0,190918,000.0,W*5D,18:58:56 19/09/18
$GPRMC,185935.00,A,4539.5339888,N,12259.2289234,W,000.0,000.0,190918,000.0,W*55,18:59:35 19/09/18
$GPRMC,190054.00,A,4540.5361596,N,12256.4121055,W,000.0,000.0,190918,000.0,W*53,19:00:54 19/09/18
$GPRMC,190200.00,A,4540.3422233,N,12256.5031290,W,000.0,000.0,190918,000.0,W*54,19:02:00 19/09/18
$GPRMC,190316.00,A,4539.4100666,N,12254.9405082,W,000.0,000.0,190918,000.0,W*56,19:03:16 19/09/18
$GPRMC,190436.00,A,4540.2178057,N,12255.3373278,W,000.0,000.0,190918,000.0,W*5A,19:04:36 19/09/18
$GPRMC,190447.00,A,4540.6714523,N,12255.5701137,W,000.0,000.0,190918,000.0,W*5D,19:04:47 19/09/18
$GPRMC,190555.00,A,4538.4578319,N,12254.0451956,W,000.0,000.0,190918,000.0,W*58,19:05:55 19/09/18
$GPRMC,190812.00,A,4540.5496061,N,12259.2761843,W,000.0,000.0,190918,000.0,W*5F,19:08:12 19/09/18
$GPRMC,191044.00,A,4539.5764232,N,12301.1271722,W,000.0,000.0,190918,000.0,W*52,19:10:44 19/09/18
$GPRMC,191321.00,A,4540.1307761,N,12302.5273566,W,000.0,000.0,190918,000.0,W*5D,19:13:21 19/09/18
$GPRMC,191433.00,A,4539.4933632,N,12302.1886415,W,000.0,000.0,190918,000.0,W*59,19:14:33 19/09/18
$GPRMC,191542.00,A,4538.4508040,N,12303.6181801,W,000.0,000.0,190918,000.0,W*59,19:15:42 19/09/18
$GPRMC,191651.00,A,4537.3901965,N,12305.3822051,W,000.0,000.0,190918,000.0,W*55,19:16:51 19/09/18
$GPRMC,191818.00,A,4537.3481057,N,12307.1165666,W,000.0,000.0,190918,000.0,W*53,19:18:18 19/09/18
$GPRMC,191934.00,A,4536.3827384,N,12310.4993890,W,000.0,000.0,190918,000.0,W*55,19:19:34 19/09/18
$GPRMC,192026.00,A,4536.3485600,N,12312.1133180,W,000.0,000.0,190918,000.0,W*5C,19:20:26 19/09/18
$GPRMC,192138.00,A,4535.2231655,N,12311.8767063,W,000.0,000.0,190918,000.0,W*58,19:21:38 19/09/18
$GPRMC,192227.00,A,4535.3187763,N,12314.4869477,W,000.0,000.0,190918,000.0,W*57,19:22:27 19/09/18
$GPRMC,192346.00,A,4534.1892881,N,12313.3462044,W,000.0,000.0,190918,000.0,W*5F,19:23:46 19/09/18
$GPRMC,192522.00,A,4535.9993336,N,12313.5140890,W,000.0,000.0,190918,000.0,W*57,19:25:22 19/09/18
$GPRMC,192626.00,A,4534.4690165,N,12312.2650839,W,000.0,000.0,190918,000.0,W*57,19:26:26 19/09/18
$GPRMC,192736.00,A,4534.5546496,N,12315.6947065,W,000.0,000.0,190918,000.0,W*5C,19:27:36 19/09/18
$GPRMC,192824.00,A,4535.2335554,N,12316.3191666,W,000.0,000.0,190918,000.0,W*5B,19:28:24 19/09/18
$GPRMC,192911.00,A,4534.5386299,N,12316.2264761,W,000.0,000.0,190918,000.0,W*5A,19:29:11 19/09/18
$GPRMC,193000.00,A,4533.5682672,N,12317.5991518,W,000.0,000.0,190918,000.0,W*5E,19:30:00 19/09/18
$GPRMC,193237.00,A,4540.5482713,N,12259.5078805,W,000.0,000.0,190918,000.0,W*5C,19:32:37 19/09/18
$GPRMC,193516.00,A,4540.5476039,N,12300.2372868,W,000.0,000.0,190918,000.0,W*54,19:35:16 19/09/18
$GPRMC,193703.00,A,4540.5469365,N,12300.1395767,W,000.0,000.0,190918,000.0,W*5C,19:37:03 19/09/18
$GPRMC,193811.00,A,4540.5462691,N,12300.2554248,W,000.0,000.0,190918,000.0,W*55,19:38:11 19/09/18
$GPRMC,194015.00,A,4540.5456017,N,12300.3712730,W,000.0,000.0,190918,000.0,W*5A,19:40:15 19/09/18
$GPRMC,194148.00,A,4540.5449343,N,12300.4871211,W,000.0,000.0,190918,000.0,W*54,19:41:48 19/09/18
$GPRMC,194333.00,A,4540.5442669,N,12301.0296921,W,000.0,000.0,190918,000.0,W*52,19:43:33 19/09/18
$GPRMC,194557.00,A,4539.3953159,N,12259.5782345,W,000.0,000.0,190918,000.0,W*56,19:45:57 19/09/18
$GPRMC,194708.00,A,4539.4644348,N,12258.1255681,W,000.0,000.0,190918,000.0,W*55,19:47:08 19/09/18
$GPRMC,194808.00,A,4540.5595872,N,12301.1014692,W,000.0,000.0,190918,000.0,W*50,19:48:08 19/09/18
$GPRMC,194903.00,A,4542.7352171,N,12259.3739620,W,000.0,000.0,190918,000.0,W*52,19:49:03 19/09/18
$GPRMC,194923.00,A,4542.2301708,N,12302.3809239,W,000.0,000.0,190918,000.0,W*54,19:49:23 19/09/18
$GPRMC,194948.00,A,4542.3018097,N,12259.5169541,W,000.0,000.0,190918,000.0,W*5C,19:49:48 19/09/18
$GPRMC,195029.00,A,4541.3933603,N,12257.1686673,W,000.0,000.0,190918,000.0,W*55,19:50:29 19/09/18
$GPRMC,195113.00,A,4541.1287028,N,12258.2448601,W,000.0,000.0,190918,000.0,W*5D,19:51:13 19/09/18
$GPRMC,195203.00,A,4540.4155735,N,12301.5718445,W,000.0,000.0,190918,000.0,W*52,19:52:03 19/09/18
$GPRMC,195341.00,A,4541.3574037,N,12300.3499551,W,000.0,000.0,190918,000.0,W*58,19:53:41 19/09/18
$GPRMC,195443.00,A,4540.3126853,N,12300.5883318,W,000.0,000.0,190918,000.0,W*5F,19:54:43 19/09/18
$GPRMC,195613.00,A,4541.1660312,N,12303.8069974,W,000.0,000.0,190918,000.0,W*52,19:56:13 19/09/18
$GPRMC,195708.00,A,4540.4924484,N,12305.4539362,W,000.0,000.0,190918,000.0,W*5D,19:57:08 19/09/18
$GPRMC,195834.00,A,4539.3852512,N,12303.3437368,W,000.0,000.0,190918,000.0,W*5E,19:58:34 19/09/18
$GPRMC,195924.00,A,4539.4844640,N,12305.1704829,W,000.0,000.0,190918,000.0,W*53,19:59:24 19/09/18
$GPRMC,200209.00,A,4540.5429321,N,12301.2346654,W,000.0,000.0,190918,000.0,W*53,20:02:09 19/09/18
$GPRMC,200430.00,A,4540.4728501,N,12301.2925927,W,000.0,000.0,190918,000.0,W*5C,20:04:30 19/09/18
$GPRMC,200544.00,A,4540.4027682,N,12301.3505201,W,000.0,000.0,190918,000.0,W*5E,20:05:44 19/09/18
$GPRMC,200658.00,A,4540.3326863,N,12301.4084475,W,000.0,000.0,190918,000.0,W*5A,20:06:58 19/09/18
$GPRMC,200842.00,A,4540.2626044,N,12301.4663749,W,000.0,000.0,190918,000.0,W*55,20:08:42 19/09/18
$GPRMC,201114.00,A,4541.4202160,N,12259.3234874,W,000.0,000.0,190918,000.0,W*50,20:11:14 19/09/18
$GPRMC,201156.00,A,4541.3031737,N,12256.4579736,W,000.0,000.0,190918,000.0,W*58,20:11:56 19/09/18
$GPRMC,201330.00,A,4539.5348273,N,12254.1041056,W,000.0,000.0,190918,000.0,W*53,20:13:30 19/09/18
$GPRMC,201450.00,A,4538.5650327,N,12250.5318759,W,000.0,000.0,190918,000.0,W*58,20:14:50 19/09/18
$GPRMC,201526.00,A,4539.3258399,N,12248.3045628,W,000.0,000.0,190918,000.0,W*55,20:15:26 19/09/18
$GPRMC,201555.00,A,4539.1017634,N,12248.4995412,W,000.0,000.0,190918,000.0,W*50,20:15:55 19/09/18
$GPRMC,201813.00,A,4538.4717813,N,12248.2817219,W,000.0,000.0,190918,000.0,W*57,20:18:13 19/09/18
$GPRMC,201906.00,A,4539.5891701,N,12248.3916212,W,000.0,000.0,190918,000.0,W*55,20:19:06 19/09/18
$GPRMC,201947.00,A,4540.3783889,N,12250.3483433,W,000.0,000.0,190918,000.0,W*56,20:19:47 19/09/18
$GPRMC,202018.00,A,4540.2508914,N,12251.4489134,W,000.0,000.0,190918,000.0,W*5D,20:20:18 19/09/18
$GPRMC,202208.00,A,4541.1978577,N,12255.1551722,W,000.0,000.0,190918,000.0,W*5A,20:22:08 19/09/18
$GPRMC,202237.00,A,4541.9518702,N,12258.3924285,W,000.0,000.0,190918,000.0,W*5D,20:22:37 19/09/18
$GPRMC,202448.00,A,4541.4020295,N,12300.1724329,W,000.0,000.0,190918,000.0,W*5C,20:24:48 19/09/18
$GPRMC,202555.00,A,4540.5015014,N,12256.4247699,W,000.0,000.0,190918,000.0,W*55,20:25:55 19/09/18
$GPRMC,202732.00,A,4539.2829416,N,12254.2434602,W,000.0,000.0,190918,000.0,W*5A,20:27:32 19/09/18
$GPRMC,202843.00,A,4540.2452515,N,12255.1040500,W,000.0,000.0,190918,000.0,W*5B,20:28:43 19/09/18
$GPRMC,202905.00,A,4540.5685462,N,12254.4361262,W,000.0,000.0,190918,000.0,W*51,20:29:05 19/09/18
$GPRMC,203025.00,A,4540.2636199,N,12257.2605932,W,000.0,000.0,190918,000.0,W*59,20:30:25 19/09/18
$GPRMC,203139.00,A,4539.1626570,N,12254.4260341,W,000.0,000.0,190918,000.0,W*56,20:31:39 19/09/18
$GPRMC,203218.00,A,4538.0961546,N,12257.1651727,W,000.0,000.0,190918,000.0,W*5B,20:32:18 19/09/18
$GPRMC,203329.00,A,4539.2301800,N,12256.2909141,W,000.0,000.0,190918,000.0,W*5E,20:33:29 19/09/18
$GPRMC,203454.00,A,4539.2800639,N,12253.1387436,W,000.0,000.0,190918,000.0,W*52,20:34:54 19/09/18
$GPRMC,203605.00,A,4539.5890038,N,12253.2277312,W,000.0,000.0,190918,000.0,W*51,20:36:05 19/09/18
$GPRMC,203714.00,A,4538.1697285,N,12255.2475620,W,000.0,000.0,190918,000.0,W*5E,20:37:14 19/09/18
$GPRMC,203829.00,A,4539.3099160,N,12253.5617739,W,000.0,000.0,190918,000.0,W*52,20:38:29 19/09/18
$GPRMC,203935.00,A,4539.2739000,N,12252.5463563,W,000.0,000.0,190918,000.0,W*58,20:39:35 19/09/18
$GPRMC,204107.00,A,4540.6256720,N,12254.4506989,W,000.0,000.0,190918,000.0,W*58,20:41:07 19/09/18
$GPRMC,204221.00,A,4539.8593665,N,12254.5415388,W,000.0,000.0,190918,000.0,W*58,20:42:21 19/09/18
$GPRMC,204416.00,A,4538.2678583,N,12256.5459391,W,000.0,000.0,190918,000.0,W*5E,20:44:16 19/09/18
$GPRMC,204703.00,A,4537.4612760,N,12257.3589644,W,000.0,000.0,190918,000.0,W*55,20:47:03 19/09/18
$GPRMC,204808.00,A,4538.6781703,N,12259.1684774,W,000.0,000.0,190918,000.0,W*52,20:48:08 19/09/18
$GPRMC,204934.00,A,4537.1068715,N,12259.2084326,W,000.0,000.0,190918,000.0,W*55,20:49:34 19/09/18
$GPRMC,205052.00,A,4536.5359245,N,12300.5982446,W,000.0,000.0,190918,000.0,W*5D,20:50:52 19/09/18
$GPRMC,205133.00,A,4538.8263794,N,12259.2609460,W,000.0,000.0,190918,000.0,W*5B,20:51:33 19/09/18
$GPRMC,205236.00,A,4537.4630813,N,12301.1400031,W,000.0,000.0,190918,000.0,W*58,20:52:36 19/09/18
$GPRMC,205332.00,A,4538.7374418,N,12303.1192888,W,000.0,000.0,190918,000.0,W*55,20:53:32 19/09/18
$GPRMC,205446.00,A,4538.1462299,N,12302.3830371,W,000.0,000.0,190918,000.0,W*57,20:54:46 19/09/18
$GPRMC,205537.00,A,4539.1130722,N,12304.4341059,W,000.0,000.0,190918,000.0,W*53,20:55:37 19/09/18
$GPRMC,205718.00,A,4539.2796938,N,12306.4579527,W,000.0,000.0,190918,000.0,W*53,20:57:18 19/09/18
$GPRMC,205759.00,A,4540.3939460,N,12309.1285541,W,000.0,000.0,190918,000.0,W*5C,20:57:59 19/09/18
$GPRMC,205928.00,A,4539.2276853,N,12306.4705120,W,000.0,000.0,190918,000.0,W*53,20:59:28 19/09/18
$GPRMC,210050.00,A,4538.4026448,N,12304.2267276,W,000.0,000.0,190918,000.0,W*52,21:00:50 19/09/18
$GPRMC,210235.00,A,4537.1999540,N,12301.2710244,W,000.0,000.0,190918,000.0,W*5C,21:02:35 19/09/18
$GPRMC,210327.00,A,4536.2420652,N,12259.1955008,W,000.0,000.0,190918,000.0,W*59,21:03:27 19/09/18
$GPRMC,210423.00,A,4535.3190791,N,12255.4722303,W,000.0,000.0,190918,000.0,W*57,21:04:23 19/09/18
$GPRMC,210611.00,A,4540.1224405,N,12301.5822296,W,000.0,000.0,190918,000.0,W*55,21:06:11 19/09/18
$GPRMC,210931.00,A,4540.5235862,N,12302.4015701,W,000.0,000.0,190918,000.0,W*54,21:09:31 19/09/18
$GPRMC,211229.00,A,4539.5822766,N,12302.9808438,W,000.0,000.0,190918,000.0,W*5E,21:12:29 19/09/18
$GPRMC,211421.00,A,4539.5121947,N,12302.1560117,W,000.0,000.0,190918,000.0,W*54,21:14:21 19/09/18
$GPRMC,211600.00,A,4539.4421128,N,12302.2139391,W,000.0,000.0,190918,000.0,W*57,21:16:00 19/09/18
$GPRMC,211813.00,A,4539.3720309,N,12302.2718664,W,000.0,000.0,190918,000.0,W*55,21:18:13 19/09/18
$GPRMC,211941.00,A,4539.3019489,N,12302.3297938,W,000.0,000.0,190918,000.0,W*54,21:19:41 19/09/18
$GPRMC,212027.00,A,4539.2318670,N,12302.3877212,W,000.0,000.0,190918,000.0,W*5E,21:20:27 19/09/18
$GPRMC,212157.00,A,4540.2712628,N,12304.3792733,W,000.0,000.0,190918,000.0,W*51,21:21:57 19/09/18
$GPRMC,212317.00,A,4541.3949258,N,12304.6762409,W,000.0,000.0,190918,000.0,W*54,21:23:17 19/09/18
$GPRMC,212502.00,A,4542.4882729,N,12307.3355675,W,000.0,000.0,190918,000.0,W*58,21:25:02 19/09/18
$GPRMC,212610.00,A,4542.2908639,N,12308.4608990,W,000.0,000.0,190918,000.0,W*5C,21:26:10 19/09/18
$GPRMC,212713.00,A,4541.5963594,N,12310.0238009,W,000.0,000.0,190918,000.0,W*50,21:27:13 19/09/18
$GPRMC,212842.00,A,4541.5731568,N,12310.9652972,W,000.0,000.0,190918,000.0,W*55,21:28:42 19/09/18
$GPRMC,212903.00,A,4542.3575535,N,12310.9368907,W,000.0,000.0,190918,000.0,W*50,21:29:03 19/09/18
$GPRMC,212952.00,A,4541.3746631,N,12312.1790351,W,000.0,000.0,190918,000.0,W*52,21:29:52 19/09/18
$GPRMC,213026.00,A,4540.3500114,N,12309.1165092,W,000.0,000.0,190918,000.0,W*52,21:30:26 19/09/18
$GPRMC,213149.00,A,4540.2736763,N,12311.2885337,W,000.0,000.0,190918,000.0,W*5B,21:31:49 19/09/18
$GPRMC,213252.00,A,4540.0062594,N,12314.5623181,W,000.0,000.0,190918,000.0,W*53,21:32:52 19/09/18
$GPRMC,213410.00,A,4540.6262301,N,12311.2869554,W,000.0,000.0,190918,000.0,W*53,21:34:10 19/09/18
$GPRMC,213455.00,A,4539.0095226,N,12312.5321049,W,000.0,000.0,190918,000.0,W*5E,21:34:55 19/09/18
$GPRMC,213601.00,A,4538.2615766,N,12312.5978802,W,000.0,000.0,190918,000.0,W*50,21:36:01 19/09/18
$GPRMC,213726.00,A,4538.3369231,N,12311.3405998,W,000.0,000.0,190918,000.0,W*5C,21:37:26 19/09/18
$GPRMC,213845.00,A,4538.5262217,N,12314.1639061,W,000.0,000.0,190918,000.0,W*5B,21:38:45 19/09/18
$GPRMC,213958.00,A,4539.3918374,N,12317.4821179,W,000.0,000.0,190918,000.0,W*5A,21:39:58 19/09/18
$GPRMC,214051.00,A,4540.1316169,N,12318.3305303,W,000.0,000.0,190918,000.0,W*51,21:40:51 19/09/18
$GPRMC,214138.00,A,4541.2936953,N,12321.4908231,W,000.0,000.0,190918,000.0,W*5E,21:41:38 19/09/18
$GPRMC,214145.00,A,4540.1945705,N,12322.5209000,W,000.0,000.0,190918,000.0,W*57,21:41:45 19/09/18
$GPRMC,214252.00,A,4540.4841395,N,12322.2175075,W,000.0,000.0,190918,000.0,W*52,21:42:52 19/09/18
$GPRMC,214433.00,A,4540.4162098,N,12322.2920688,W,000.0,000.0,190918,000.0,W*59,21:44:33 19/09/18
$GPRMC,214527.00,A,4539.2809986,N,12324.3061076,W,000.0,000.0,190918,000.0,W*5B,21:45:27 19/09/18
$GPRMC,214649.00,A,4538.4281888,N,12323.2798375,W,000.0,000.0,190918,000.0,W*55,21:46:49 19/09/18
$GPRMC,214804.00,A,4539.4865190,N,12326.4994830,W,000.0,000.0,190918,000.0,W*58,21:48:04 19/09/18
$GPRMC,214927.00,A,4540.5981720,N,12326.2196893,W,000.0,000.0,190918,000.0,W*54,21:49:27 19/09/18
$GPRMC,215053.00,A,4539.5782589,N,12328.7084345,W,000.0,000.0,190918,000.0,W*54,21:50:53 19/09/18
$GPRMC,215120.00,A,4539.3830543,N,12325.3218102,W,000.0,000.0,190918,000.0,W*58,21:51:20 19/09/18
$GPRMC,215233.00,A,4539.9170318,N,12302.5035759,W,000.0,000.0,190918,000.0,W*50,21:52:33 19/09/18
$GPRMC,215341.00,A,4539.2162125,N,12302.5615033,W,000.0,000.0,190918,000.0,W*5F,21:53:41 19/09/18
$GPRMC,215613.00,A,4538.5515393,N,12303.1943070,W,000.0,000.0,190918,000.0,W*5E,21:56:13 19/09/18
$GPRMC,215811.00,A,4538.4814573,N,12303.7735807,W,000.0,000.0,190918,000.0,W*56,21:58:11 19/09/18
$GPRMC,220017.00,A,4538.4113754,N,12303.1352854,W,000.0,000.0,190918,000.0,W*52,22:00:17 19/09/18
$GPRMC,220219.00,A,4538.3412935,N,12303.1932128,W,000.0,000.0,190918,000.0,W*5A,22:02:19 19/09/18
$GPRMC,220403.00,A,4538.2712116,N,12303.2511401,W,000.0,000.0,190918,000.0,W*5C,22:04:03 19/09/18
$GPRMC,220611.00,A,4538.2011296,N,12303.3090675,W,000.0,000.0,190918,000.0,W*5E,22:06:11 19/09/18
$GPRMC,220718.00,A,4538.1310477,N,12303.3669949,W,000.0,000.0,190918,000.0,W*5E,22:07:18 19/09/18
$GPRMC,220932.00,A,4538.6096581,N,12303.4249222,W,000.0,000.0,190918,000.0,W*5D,22:09:32 19/09/18
$GPRMC,221328.00,A,4537.1120027,N,12302.1077117,W,000.0,000.0,190918,000.0,W*5E,22:13:28 19/09/18
$GPRMC,221440.00,A,4538.1300789,N,12259.2397974,W,000.0,000.0,190918,000.0,W*57,22:14:40 19/09/18
$GPRMC,221555.00,A,4537.4554027,N,12257.2744152,W,000.0,000.0,190918,000.0,W*54,22:15:55 19/09/18
$GPRMC,221659.00,A,4537.4778060,N,12254.4978341,W,000.0,000.0,190918,000.0,W*50,22:16:59 19/09/18
$GPRMC,221743.00,A,4538.5708055,N,12255.3059167,W,000.0,000.0,190918,000.0,W*5F,22:17:43 19/09/18
$GPRMC,221810.00,A,4539.1294454,N,12252.7651404,W,000.0,000.0,190918,000.0,W*5B,22:18:10 19/09/18
$GPRMC,221830.00,A,4537.5765792,N,12250.4770977,W,000.0,000.0,190918,000.0,W*5B,22:18:30 19/09/18
$GPRMC,221945.00,A,4537.3527852,N,12248.1096437,W,000.0,000.0,190918,000.0,W*53,22:19:45 19/09/18
$GPRMC,222044.00,A,4537.4931535,N,12250.1876117,W,000.0,000.0,190918,000.0,W*50,22:20:44 19/09/18
$GPRMC,222124.00,A,4538.4100885,N,12249.5476892,W,000.0,000.0,190918,000.0,W*50,22:21:24 19/09/18
$GPRMC,222309.00,A,4538.3252478,N,12253.2519067,W,000.0,000.0,190918,000.0,W*56,22:23:09 19/09/18
$GPRMC,222359.00,A,4538.2392697,N,12252.2089679,W,000.0,000.0,190918,000.0,W*58,22:23:59 19/09/18
$GPRMC,222557.00,A,4538.4457476,N,12250.4233699,W,000.0,000.0,190918,000.0,W*5C,22:25:57 19/09/18
$GPRMC,222738.00,A,4538.3769146,N,12247.1764349,W,000.0,000.0,190918,000.0,W*54,22:27:38 19/09/18
$GPRMC,222916.00,A,4539.3305874,N,12249.3952222,W,000.0,000.0,190918,000.0,W*5A,22:29:16 19/09/18
$GPRMC,223004.00,A,4540.4609043,N,12247.1150636,W,000.0,000.0,190918,000.0,W*5A,22:30:04 19/09/18
$GPRMC,223112.00,A,4541.3869758,N,12244.5293137,W,000.0,000.0,190918,000.0,W*52,22:31:12 19/09/18
$GPRMC,223219.00,A,4541.4217692,N,12244.8030912,W,000.0,000.0,190918,000.0,W*50,22:32:19 19/09/18
$GPRMC,223409.00,A,4542.2336657,N,12241.8955015,W,000.0,000.0,190918,000.0,W*58,22:34:09 19/09/18
$GPRMC,223453.00,A,4542.5148096,N,12242.5387019,W,000.0,000.0,190918,000.0,W*57,22:34:53 19/09/18
$GPRMC,223609.00,A,4541.3542102,N,12243.5531432,W,000.0,000.0,190918,000.0,W*5A,22:36:09 19/09/18
$GPRMC,223738.00,A,4541.3729772,N,12241.6522258,W,000.0,000.0,190918,000.0,W*5E,22:37:38 19/09/18
$GPRMC,223905.00,A,4541.4979089,N,12240.2968737,W,000.0,000.0,190918,000.0,W*5A,22:39:05 19/09/18
$GPRMC,224015.00,A,4537.5208019,N,12303.5407770,W,000.0,000.0,190918,000.0,W*57,22:40:15 19/09/18
$GPRMC,224103.00,A,4537.4507200,N,12303.5987043,W,000.0,000.0,190918,000.0,W*50,22:41:03 19/09/18
$GPRMC,224232.00,A,4537.3806381,N,12304.5663176,W,000.0,000.0,190918,000.0,W*57,22:42:32 19/09/18
$GPRMC,224347.00,A,4537.3105561,N,12304.1145591,W,000.0,000.0,190918,000.0,W*5C,22:43:47 19/09/18
$GPRMC,224455.00,A,4537.2404742,N,12304.1724865,W,000.0,000.0,190918,000.0,W*59,22:44:55 19/09/18
$GPRMC,224633.00,A,4537.1703923,N,12304.2304138,W,000.0,000.0,190918,000.0,W*51,22:46:33 19/09/18
$GPRMC,224924.00,A,4536.1233936,N,12302.1862134,W,000.0,000.0,190918,000.0,W*59,22:49:24 19/09/18
$GPRMC,225034.00,A,4535.3937485,N,12304.4351740,W,000.0,000.0,190918,000.0,W*56,22:50:34 19/09/18
$GPRMC,225112.00,A,4534.4505804,N,12303.1318421,W,000.0,000.0,190918,000.0,W*56,22:51:12 19/09/18
$GPRMC,225157.00,A,4535.1767288,N,12305.2766356,W,000.0,000.0,190918,000.0,W*54,22:51:57 19/09/18
$GPRMC,225221.00,A,4536.4354290,N,12308.3255818,W,000.0,000.0,190918,000.0,W*55,22:52:21 19/09/18
$GPRMC,225315.00,A,4534.4422742,N,12305.1100650,W,000.0,000.0,190918,000.0,W*53,22:53:15 19/09/18
$GPRMC,225457.00,A,4534.1058866,N,12305.1652221,W,000.0,000.0,190918,000.0,W*55,22:54:57 19/09/18
$GPRMC,225615.00,A,4534.2710323,N,12306.1223497,W,000.0,000.0,190918,000.0,W*59,22:56:15 19/09/18
$GPRMC,225726.00,A,4533.4965330,N,12306.4057354,W,000.0,000.0,190918,000.0,W*5B,22:57:26 19/09/18
$GPRMC,225846.00,A,4532.2922964,N,12307.5277883,W,000.0,000.0,190918,000.0,W*5C,22:58:46 19/09/18
$GPRMC,230024.00,A,4531.5212820,N,12308.2676692,W,000.0,000.0,190918,000.0,W*5A,23:00:24 19/09/18
$GPRMC,230100.00,A,4532.5120745,N,12309.5491627,W,000.0,000.0,190918,000.0,W*53,23:01:00 19/09/18
$GPRMC,230220.00,A,4532.5930870,N,12306.4274331,W,000.0,000.0,190918,000.0,W*53,23:02:20 19/09/18
$GPRMC,230256.00,A,4533.2165358,N,12308.3178506,W,000.0,000.0,190918,000.0,W*59,23:02:56 19/09/18
$GPRMC,230403.00,A,4533.4234008,N,12306.3179825,W,000.0,000.0,190918,000.0,W*5B,23:04:03 19/09/18
$GPRMC,230549.00,A,4534.4385390,N,12305.3343187,W,000.0,000.0,190918,000.0,W*53,23:05:49 19/09/18
$GPRMC,230707.00,A,4536.3467331,N,12303.4487961,W,000.0,000.0,190918,000.0,W*50,23:07:07 19/09/18
$GPRMC,230810.00,A,4536.4544568,N,12302.5177239,W,000.0,000.0,190918,000.0,W*58,23:08:10 19/09/18
$GPRMC,230946.00,A,4537.1834953,N,12304.3098102,W,000.0,000.0,190918,000.0,W*5B,23:09:46 19/09/18
$GPRMC,231128.00,A,4536.5423281,N,12304.3495084,W,000.0,000.0,190918,000.0,W*57,23:11:28 19/09/18
$GPRMC,231318.00,A,4536.4663067,N,12304.3892066,W,000.0,000.0,190918,000.0,W*5C,23:13:18 19/09/18
$GPRMC,231511.00,A,4536.3902853,N,12304.4289048,W,000.0,000.0,190918,000.0,W*58,23:15:11 19/09/18
$GPRMC,231637.00,A,4536.3142639,N,12304.4686030,W,000.0,000.0,190918,000.0,W*55,23:16:37 19/09/18
$GPRMC,231824.00,A,4536.2382426,N,12304.5083012,W,000.0,000.0,190918,000.0,W*58,23:18:24 19/09/18
$GPRMC,231932.00,A,4536.1622212,N,12304.5479994,W,000.0,000.0,190918,000.0,W*55,23:19:32 19/09/18
$GPRMC,232046.00,A,4536.8619983,N,12304.5876976,W,000.0,000.0,190918,000.0,W*51,23:20:46 19/09/18
$GPRMC,232338.00,A,4536.1017844,N,12305.2739588,W,000.0,000.0,190918,000.0,W*5F,23:23:38 19/09/18
$GPRMC,232700.00,A,4537.0140434,N,12308.3593360,W,000.0,000.0,190918,000.0,W*56,23:27:00 19/09/18
$GPRMC,232756.00,A,4536.4046878,N,12311.3960862,W,000.0,000.0,190918,000.0,W*52,23:27:56 19/09/18
$GPRMC,232838.00,A,4537.4762814,N,12308.5319201,W,000.0,000.0,190918,000.0,W*5A,23:28:38 19/09/18
$GPRMC,232933.00,A,4537.2064485,N,12309.4571067,W,000.0,000.0,190918,000.0,W*59,23:29:33 19/09/18
$GPRMC,233029.00,A,4536.4955235,N,12306.3138279,W,000.0,000.0,190918,000.0,W*57,23:30:29 19/09/18
$GPRMC,233131.00,A,4537.2459647,N,12305.5158124,W,000.0,000.0,190918,000.0,W*50,23:31:31 19/09/18
$GPRMC,233232.00,A,4538.2818939,N,12302.2428207,W,000.0,000.0,190918,000.0,W*50,23:32:32 19/09/18
$GPRMC,233350.00,A,4538.5610387,N,12300.2904375,W,000.0,000.0,190918,000.0,W*5E,23:33:50 19/09/18
$GPRMC,233505.00,A,4539.4195593,N,12301.5358288,W,000.0,000.0,190918,000.0,W*57,23:35:05 19/09/18
$GPRMC,233617.00,A,4538.4075310,N,12301.1814766,W,000.0,000.0,190918,000.0,W*56,23:36:17 19/09/18
$GPRMC,233744.00,A,4538.2796132,N,12259.3421506,W,000.0,000.0,190918,000.0,W*5F,23:37:44 19/09/18
$GPRMC,233912.00,A,4537.3151364,N,12301.5776401,W,000.0,000.0,190918,000.0,W*5D,23:39:12 19/09/18
$GPRMC,234037.00,A,4536.4051742,N,12301.4160661,W,000.0,000.0,190918,000.0,W*57,23:40:37 19/09/18
$GPRMC,234208.00,A,4536.1894870,N,12301.4967479,W,000.0,000.0,190918,000.0,W*57,23:42:08 19/09/18
$GPRMC,234350.00,A,4536.1225666,N,12304.7874244,W,000.0,000.0,190918,000.0,W*5F,23:43:50 19/09/18
$GPRMC,234429.00,A,4535.1692163,N,12307.3087025,W,000.0,000.0,190918,000.0,W*59,23:44:29 19/09/18
$GPRMC,234445.00,A,4535.5643335,N,12310.4783150,W,000.0,000.0,190918,000.0,W*5B,23:44:45 19/09/18
$GPRMC,234515.00,A,4537.1073838,N,12308.4509892,W,000.0,000.0,190918,000.0,W*54,23:45:15 19/09/18
$GPRMC,234620.00,A,4538.1333456,N,12305.1301363,W,000.0,000.0,190918,000.0,W*5E,23:46:20 19/09/18
$GPRMC,234755.00,A,4539.1490071,N,12307.5672240,W,000.0,000.0,190918,000.0,W*54,23:47:55 19/09/18
$GPRMC,234914.00,A,4539.8460059,N,12306.2369978,W,000.0,000.0,190918,000.0,W*5A,23:49:14 19/09/18
$GPRMC,235022.00,A,4538.5318203,N,12304.5702357,W,000.0,000.0,190918,000.0,W*55,23:50:22 19/09/18
$GPRMC,235112.00,A,4538.4453827,N,12301.2600899,W,000.0,000.0,190918,000.0,W*5A,23:51:12 19/09/18
$GPRMC,235328.00,A,4538.2237080,N,12303.3227529,W,000.0,000.0,190918,000.0,W*52,23:53:28 19/09/18
$GPRMC,235418.00,A,4539.8758907,N,12303.4941118,W,000.0,000.0,190918,000.0,W*5D,23:54:18 19/09/18
$GPRMC,235424.00,A,4540.2213602,N,12304.1100668,W,000.0,000.0,190918,000.0,W*59,23:54:24 19/09/18
$GPRMC,235532.00,A,4540.5002604,N,12301.4273479,W,000.0,000.0,190918,000.0,W*59,23:55:32 19/09/18
$GPRMC,235630.00,A,4541.4699771,N,12300.3038363,W,000.0,000.0,190918,000.0,W*58,23:56:30 19/09/18
$GPRMC,235820.00,A,4541.1316610,N,12302.4682668,W,000.0,000.0,190918,000.0,W*5A,23:58:20 19/09/18
$GPRMC,235952.00,A,4541.4269983,N,12302.2425880,W,000.0,000.0,190918,000.0,W*56,23:59:52 19/09/18
$GPRMC,000143.00,A,4542.5374946,N,12305.3741112,W,000.0,000.0,200918,000.0,W*53,00:01:43 20/09/18
$GPRMC,000210.00,A,4543.3980602,N,12304.1220751,W,000.0,000.0,200918,000.0,W*5F,00:02:10 20/09/18
$GPRMC,000253.00,A,4543.5366978,N,12304.1662207,W,000.0,000.0,200918,000.0,W*5A,00:02:53 20/09/18
$GPRMC,000357.00,A,4544.5691929,N,12302.4318638,W,000.0,000.0,200918,000.0,W*52,00:03:57 20/09/18
$GPRMC,000512.00,A,4544.4703978,N,12304.4710124,W,000.0,000.0,200918,000.0,W*5A,00:05:12 20/09/18
$GPRMC,000624.00,A,4545.5780608,N,12301.4852369,W,000.0,000.0,200918,000.0,W*58,00:06:24 20/09/18
$GPRMC,000733.00,A,4545.1094299,N,12302.2782890,W,000.0,000.0,200918,000.0,W*5F,00:07:33 20/09/18
$GPRMC,000931.00,A,4545.5242303,N,12302.1274855,W,000.0,000.0,200918,000.0,W*5A,00:09:31 20/09/18
$GPRMC,001043.00,A,4545.3542687,N,12258.5223789,W,000.0,000.0,200918,000.0,W*59,00:10:43 20/09/18
$GPRMC,001155.00,A,4545.5242900,N,12300.6082840,W,000.0,000.0,200918,000.0,W*52,00:11:55 20/09/18
$GPRMC,001506.00,A,4535.4581356,N,12305.1067922,W,000.0,000.0,200918,000.0,W*5B,00:15:06 20/09/18
$GPRMC,001633.00,A,4535.3821142,N,12305.1464904,W,000.0,000.0,200918,000.0,W*5A,00:16:33 20/09/18
$GPRMC,001931.00,A,4535.3060929,N,12305.1861886,W,000.0,000.0,200918,000.0,W*5D,00:19:31 20/09/18
$GPRMC,002157.00,A,4535.2300715,N,12305.2258868,W,000.0,000.0,200918,000.0,W*50,00:21:57 20/09/18
$GPRMC,002247.00,A,4535.1540501,N,12305.2655850,W,000.0,000.0,200918,000.0,W*56,00:22:47 20/09/18
$GPRMC,002410.00,A,4535.7802874,N,12305.3052832,W,000.0,000.0,200918,000.0,W*54,00:24:10 20/09/18
$GPRMC,002606.00,A,4535.0200735,N,12305.3449814,W,000.0,000.0,200918,000.0,W*5E,00:26:06 20/09/18
$GPRMC,003019.00,A,4534.4977461,N,12308.1487407,W,000.0,000.0,200918,000.0,W*58,00:30:19 20/09/18
$GPRMC,003130.00,A,4535.1971240,N,12307.2897730,W,000.0,000.0,200918,000.0,W*53,00:31:30 20/09/18
$GPRMC,003257.00,A,4536.4839743,N,12306.1272853,W,000.0,000.0,200918,000.0,W*55,00:32:57 20/09/18
$GPRMC,003410.00,A,4536.3626709,N,12303.2724422,W,000.0,000.0,200918,000.0,W*53,00:34:10 20/09/18
$GPRMC,003421.00,A,4537.3163026,N,12306.1221200,W,000.0,000.0,200918,000.0,W*5C,00:34:21 20/09/18
$GPRMC,003612.00,A,4537.1943267,N,12308.1287528,W,000.0,000.0,200918,000.0,W*5E,00:36:12 20/09/18
$GPRMC,003703.00,A,4536.3906100,N,12308.4116231,W,000.0,000.0,200918,000.0,W*5E,00:37:03 20/09/18
$GPRMC,003759.00,A,4537.3662765,N,12310.4608015,W,000.0,000.0,200918,000.0,W*5D,00:37:59 20/09/18
$GPRMC,003825.00,A,4537.5955542,N,12312.4902486,W,000.0,000.0,200918,000.0,W*5A,00:38:25 20/09/18
$GPRMC,003929.00,A,4538.5359660,N,12310.5683332,W,000.0,000.0,200918,000.0,W*50,00:39:29 20/09/18
$GPRMC,004206.00,A,4534.4499645,N,12305.4243778,W,000.0,000.0,200918,000.0,W*57,00:42:06 20/09/18
$GPRMC,004453.00,A,4534.3739432,N,12305.4640761,W,000.0,000.0,200918,000.0,W*52,00:44:53 20/09/18
$GPRMC,004657.00,A,4534.2979218,N,12305.5037743,W,000.0,000.0,200918,000.0,W*56,00:46:57 20/09/18
$GPRMC,004740.00,A,4534.2219004,N,12305.5434725,W,000.0,000.0,200918,000.0,W*54,00:47:40 20/09/18
$GPRMC,004902.00,A,4534.1458790,N,12305.5831707,W,000.0,000.0,200918,000.0,W*5F,00:49:02 20/09/18
$GPRMC,004952.00,A,4534.6985765,N,12306.2286890,W,000.0,000.0,200918,000.0,W*59,00:49:52 20/09/18
$GPRMC,005136.00,A,4533.5938362,N,12306.6256710,W,000.0,000.0,200918,000.0,W*5D,00:51:36 20/09/18
$GPRMC,005409.00,A,4533.5178148,N,12306.1022653,W,000.0,000.0,200918,000.0,W*52,00:54:09 20/09/18
$GPRMC,005552.00,A,4533.4417934,N,12306.1419635,W,000.0,000.0,200918,000.0,W*5F,00:55:52 20/09/18
$GPRMC,005836.00,A,4533.4752861,N,12305.4119040,W,000.0,000.0,200918,000.0,W*54,00:58:36 20/09/18
$GPRMC,005922.00,A,4534.5800134,N,12304.5718625,W,000.0,000.0,200918,000.0,W*55,00:59:22 20/09/18
$GPRMC,010047.00,A,4535.5527951,N,12301.1741834,W,000.0,000.0,200918,000.0,W*5A,01:00:47 20/09/18
$GPRMC,010254.00,A,4536.1770832,N,12258.2192639,W,000.0,000.0,200918,000.0,W*5C,01:02:54 20/09/18
$GPRMC,010341.00,A,4537.2926569,N,12256.3290090,W,000.0,000.0,200918,000.0,W*5E,01:03:41 20/09/18
$GPRMC,010443.00,A,4536.2381169,N,12257.1042716,W,000.0,000.0,200918,000.0,W*5E,01:04:43 20/09/18
$GPRMC,010649.00,A,4536.2530707,N,12258.2563798,W,000.0,000.0,200918,000.0,W*58,01:06:49 20/09/18
$GPRMC,010708.00,A,4536.5913087,N,12302.6095682,W,000.0,000.0,200918,000.0,W*55,01:07:08 20/09/18
$GPRMC,010757.00,A,4536.3124342,N,12301.1689620,W,000.0,000.0,200918,000.0,W*58,01:07:57 20/09/18
$GPRMC,010857.00,A,4537.4531749,N,12258.5405634,W,000.0,000.0,200918,000.0,W*54,01:08:57 20/09/18
$GPRMC,011001.00,A,4536.3744565,N,12258.2774172,W,000.0,000.0,200918,000.0,W*53,01:10:01 20/09/18
$GPRMC,011123.00,A,4536.1683185,N,12259.3187921,W,000.0,000.0,200918,000.0,W*54,01:11:23 20/09/18
$GPRMC,011206.00,A,4537.2002635,N,12259.2618077,W,000.0,000.0,200918,000.0,W*5B,01:12:06 20/09/18
$GPRMC,011307.00,A,4537.1633949,N,12258.2434529,W,000.0,000.0,200918,000.0,W*5B,01:13:07 20/09/18
$GPRMC,011445.00,A,4533.2897507,N,12306.2213599,W,000.0,000.0,200918,000.0,W*59,01:14:45 20/09/18
$GPRMC,011701.00,A,4533.2137293,N,12306.2610581,W,000.0,000.0,200918,000.0,W*5D,01:17:01 20/09/18
$GPRMC,011829.00,A,4533.1377079,N,12306.3007563,W,000.0,000.0,200918,000.0,W*56,01:18:29 20/09/18
$GPRMC,012128.00,A,4533.3009628,N,12304.3890604,W,000.0,000.0,200918,000.0,W*51,01:21:28 20/09/18
$GPRMC,012156.00,A,4533.2678938,N,12307.4725875,W,000.0,000.0,200918,000.0,W*5A,01:21:56 20/09/18
$GPRMC,012248.00,A,4534.9151293,N,12310.4534066,W,000.0,000.0,200918,000.0,W*52,01:22:48 20/09/18
$GPRMC,012334.00,A,4533.1378372,N,12308.3619706,W,000.0,000.0,200918,000.0,W*53,01:23:34 20/09/18
$GPRMC,012506.00,A,4533.6406747,N,12311.3139452,W,000.0,000.0,200918,000.0,W*50,01:25:06 20/09/18
$GPRMC,012622.00,A,4533.1606391,N,12313.5435200,W,000.0,000.0,200918,000.0,W*53,01:26:22 20/09/18
$GPRMC,012639.00,A,4533.3537475,N,12315.2056361,W,000.0,000.0,200918,000.0,W*51,01:26:39 20/09/18
$GPRMC,012739.00,A,4533.5243764,N,12312.1483205,W,000.0,000.0,200918,000.0,W*5A,01:27:39 20/09/18
$GPRMC,012839.00,A,4534.1650575,N,12315.3141918,W,000.0,000.0,200918,000.0,W*5B,01:28:39 20/09/18
$GPRMC,012927.00,A,4534.1856274,N,12318.1466029,W,000.0,000.0,200918,000.0,W*5F,01:29:27 20/09/18
$GPRMC,013048.00,A,4534.5157769,N,12317.4237607,W,000.0,000.0,200918,000.0,W*59,01:30:48 20/09/18
$GPRMC,013112.00,A,4534.1552234,N,12320.4213712,W,000.0,000.0,200918,000.0,W*58,01:31:12 20/09/18
$GPRMC,013212.00,A,4533.5248587,N,12318.0481517,W,000.0,000.0,200918,000.0,W*5E,01:32:12 20/09/18
